$GPRMC,030720.000,A,2805.8247,N,08227.8608,W,0.00,4.80,101017,,,D*7A
$HCHDM,064.5,M*2E
$HCHDM,095.8,M*2D
$GPRMC,030718.000,A,2805.8247,N,08227.8608,W,0.00,4.80,101017,,,D*71
$GPGSV,3,1,12,02,00,015,00,03,36,304,00,06,00,344,00,07,00,248,00*73
$GPGSV,3,2,12,16,40,195,35,32,40,099,22,03,32,308,30,01,06,255,19*71
$GPRMC,030638.000,A,2805.8243,N,08227.8608,W,0.00,4.80,101017,,,D*76
$GPRMC,030647.000,A,2805.8247,N,08227.8607,W,0.00,4.80,101017,,,D*75
$GPGSV,3,1,12,26,70,174,34,14,53,077,28,31,52,017,25,22,47,285,36*7A
$GPGGA,030714.000,2805.8247,N,08227.8608,W,2,07,1.2,14.7,M,-29.9,M,3.0,0000*77
$GPRMC,030652.000,A,2805.8247,N,08227.8607,W,0.00,4.80,101017,,,D*71
$GPGSV,3,1,12,01,04,253,00,02,00,016,00,16,46,197,00,22,49,278,39*7C
$GPGSV,3,1,12,01,04,253,00,02,00,016,00,16,46,197,00,22,49,278,39*7C
$GPGSV,3,1,12,01,04,253,00,02,00,016,00,16,46,197,00,22,49,278,39*7C
$GPGSV,3,1,12,01,04,253,00,02,00,016,00,16,46,197,00,22,49,278,39*7C
$GPGSV,3,1,12,01,04,253,00,02,00,016,00,16,46,197,00,22,49,278,39*7C
$GPGSV,3,1,12,01,04,253,00,02,00,016,00,16,46,197,00,22,49,278,39*7C
$GPGSV,3,1,12,01,04,253,00,02,00,016,00,16,46,197,00,22,49,278,39*7C
$GPRMC,030730.000,A,2805.8247,N,08227.8608,W,0.00,4.80,101017,,,D*7B
$HCHDM,064.0,M*2B
$GPRMC,030810.000,A,2805.8248,N,08227.8608,W,0.00,4.80,101017,,,D*79
$GPGGA,031000.000,2805.8247,N,08227.8609,W,2,06,1.4,15.6,M,-29.9,M,2.0,0000*73
$GPGGA,030856.000,2805.8248,N,08227.8608,W,2,07,1.2,15.0,M,-29.9,M,4.0,0000*70
$GPRMC,030732.000,A,2805.8247,N,08227.8608,W,0.00,4.80,101017,,,D*79
$GPGGA,030755.000,2805.8248,N,08227.8608,W,2,07,1.2,14.7,M,-29.9,M,3.0,0000*7D
$GPGSV,3,2,12,16,40,195,32,32,40,099,28,03,32,308,28,25,04,036,12*7D
$GPRMC,030808.000,A,2805.8248,N,08227.8608,W,0.00,4.80,101017,,,D*70
$GPGSV,3,2,12,16,40,195,32,32,40,099,28,03,32,308,27,10,06,159,17*7B
$HCHDM,122.8,M*20
$GPGGA,030734.000,2805.8247,N,08227.8608,W,2,07,1.2,14.7,M,-29.9,M,2.0,0000*74
$GPGGA,031009.000,2805.8247,N,08227.8609,W,2,06,1.4,15.6,M,-29.9,M,2.0,0000*7A
$GPRMC,030912.000,A,2805.8248,N,08227.8608,W,0.00,4.80,101017,,,D*7A
$HCHDM,068.1,M*26
$GPGGA,030957.000,2805.8247,N,08227.8609,W,2,06,1.4,15.6,M,-29.9,M,3.0,0000*78
$HCHDM,120.3,M*29
$GPGGA,030849.000,2805.8248,N,08227.8608,W,2,07,1.2,15.0,M,-29.9,M,3.0,0000*79
$GPGSV,3,3,12,29,09,060,00,30,00,234,00,31,49,024,00,32,37,105,00*70
$GPGSV,3,3,12,29,09,060,00,30,00,234,00,31,49,024,00,32,37,105,00*70
$GPGSV,3,3,12,29,09,060,00,30,00,234,00,31,49,024,00,32,37,105,00*70
$GPGSV,3,3,12,29,09,060,00,30,00,234,00,31,49,024,00,32,37,105,00*70
$GPGSV,3,3,12,29,09,060,00,30,00,234,00,31,49,024,00,32,37,105,00*70
$GPGSV,3,3,12,29,09,060,00,30,00,234,00,31,49,024,00,32,37,105,00*70
$HCHDM,071.8,M*27
$GPRMC,030812.000,A,2805.8248,N,08227.8608,W,0.00,4.80,101017,,,D*7B
$GPGGA,030740.000,2805.8247,N,08227.8608,W,2,07,1.2,14.7,M,-29.9,M,2.0,0000*77
$GPGSV,3,2,12,16,40,195,35,32,40,099,26,03,32,308,30,01,06,255,21*7E
$HCHDM,138.8,M*2B
$GPGSV,3,2,12,16,41,195,33,32,39,100,23,01,05,254,23,03,33,307,05*7B
$GPGLL,,,,,,V,N*64
$GPGLL,,,,,,V,N*64
$GPGLL,,,,,,V,N*64
$GPGLL,,,,,,V,N*64
$GPGLL,,,,,,V,N*64
$GPGLL,,,,,,V,N*64
$GPGLL,,,,,,V,N*64
$GPGLL,,,,,,V,N*64
$GPGLL,,,,,,V,N*64
$GPGLL,,,,,,V,N*64
$GPGLL,,,,,,V,N*64
$GPGLL,,,,,,V,N*64
$GPGLL,,,,,,V,N*64
$GPGLL,,,,,,V,N*64
$GPGLL,,,,,,V,N*64
$GPGLL,,,,,,V,N*64
$GPGLL,,,,,,V,N*64
$GPGLL,,,,,,V,N*64
$GPGLL,,,,,,V,N*64
$GPGLL,,,,,,V,N*64
$GPGLL,,,,,,V,N*64
$GPGLL,,,,,,V,N*64
$GPGLL,,,,,,V,N*64
$GPGLL,,,,,,V,N*64
$GPGLL,,,,,,V,N*64
$GPGLL,,,,,,V,N*64
$GPGLL,,,,,,V,N*64
$GPGLL,,,,,,V,N*64
$GPGLL,,,,,,V,N*64
$GPGLL,,,,,,V,N*64
$GPGLL,,,,,,V,N*64
$GPGLL,,,,,,V,N*64
$GPGLL,,,,,,V,N*64
$GPGLL,,,,,,V,N*64
$GPGLL,,,,,,V,N*64
$GPGLL,,,,,,V,N*64
$GPGLL,,,,,,V,N*64
$GPGLL,,,,,,V,N*64
$GPGLL,,,,,,V,N*64
$GPGLL,,,,,,V,N*64
$GPGLL,,,,,,V,N*64
$GPGLL,,,,,,V,N*64
$GPGLL,,,,,,V,N*64
$GPGLL,,,,,,V,N*64
$GPGLL,,,,,,V,N*64
$GPGLL,,,,,,V,N*64
$GPGLL,,,,,,V,N*64
$GPGLL,,,,,,V,N*64
$GPGLL,,,,,,V,N*64
$GPGLL,,,,,,V,N*64
$GPGSV,3,1,12,26,71,174,35,14,53,078,21,31,52,018,25,22,47,284,29*7C
$GPGSV,3,1,12,26,70,175,35,14,53,076,30,31,52,017,26,22,47,286,37*73
$GPRMC,030920.000,A,2805.8247,N,08227.8609,W,0.00,4.80,101017,,,D*75
$GPRMC,030800.000,A,2805.8248,N,08227.8608,W,0.00,4.80,101017,,,D*78
$GPGGA,030745.000,2805.8247,N,08227.8608,W,2,07,1.2,14.7,M,-29.9,M,2.0,0000*72
$GPGGA,030828.000,2805.8248,N,08227.8608,W,2,08,1.1,14.9,M,-29.9,M,2.0,0000*7B
$HCHDM,088.7,M*2E
$GPRMC,030700.000,A,2805.8247,N,08227.8608,W,0.00,4.80,101017,,,D*78
$GPGSV,3,2,12,16,40,195,35,32,40,099,27,03,32,308,30,01,06,255,19*74
$GPGGA,030706.000,2805.8247,N,08227.8608,W,2,07,1.2,14.7,M,-29.9,M,2.0,0000*75
$GPGSV,3,1,12,26,71,174,36,14,53,077,22,31,52,018,25,22,47,285,31*7B
$GPRMC,030727.000,A,2805.8247,N,08227.8608,W,0.00,4.80,101017,,,D*7D
$GPGGA,030848.000,2805.8248,N,08227.8608,W,2,07,1.2,15.0,M,-29.9,M,2.0,0000*79
$GPGSV,3,3,12,25,04,036,05,51,47,224,39,29,08,065,,01,06,255,*75
$GPRMC,030721.000,A,2805.8247,N,08227.8608,W,0.00,4.80,101017,,,D*7B
$GPGGA,030711.000,2805.8247,N,08227.8608,W,2,07,1.2,14.7,M,-29.9,M,2.0,0000*73
$GPGSV,3,1,12,01,04,252,00,02,00,015,00,03,35,305,00,16,46,197,00*77
$GPGGA,030921.000,2805.8247,N,08227.8609,W,2,07,1.2,15.5,M,-29.9,M,4.0,0000*7A
$GPGGA,030904.000,2805.8248,N,08227.8608,W,2,07,1.2,15.0,M,-29.9,M,2.0,0000*70
$GPRMC,030948.000,A,2805.8247,N,08227.8609,W,0.00,4.80,101017,,,D*7B
$GPGSV,3,2,12,17,00,302,00,18,00,147,00,19,00,321,00,20,00,110,00*7D
$GPGSV,3,2,12,17,00,302,00,18,00,147,00,19,00,321,00,20,00,110,00*7D
$GPGSV,3,2,12,17,00,302,00,18,00,147,00,19,00,321,00,20,00,110,00*7D
$GPGSV,3,2,12,17,00,302,00,18,00,147,00,19,00,321,00,20,00,110,00*7D
$GPGSV,3,2,12,17,00,302,00,18,00,147,00,19,00,321,00,20,00,110,00*7D
$GPGSV,3,2,12,17,00,302,00,18,00,147,00,19,00,321,00,20,00,110,00*7D
$GPGSV,3,2,12,17,00,302,00,18,00,147,00,19,00,321,00,20,00,110,00*7D
$GPGSV,3,2,12,17,00,302,00,18,00,147,00,19,00,321,00,20,00,110,00*7D
$GPGGA,030655.000,2805.8247,N,08227.8607,W,2,08,1.1,14.8,M,-29.9,M,3.0,0000*7F
$GPRMC,030952.000,A,2805.8247,N,08227.8609,W,0.00,4.80,101017,,,D*70
$GPRMC,030735.000,A,2805.8247,N,08227.8608,W,0.00,4.80,101017,,,D*7E
$GPGSV,3,2,12,16,40,195,25,32,40,099,28,03,32,308,25,10,06,159,17*7F
$GPRMC,030835.000,A,2805.8248,N,08227.8608,W,0.00,4.80,101017,,,D*7E
$GPGGA,030739.000,2805.8247,N,08227.8608,W,2,07,1.2,14.7,M,-29.9,M,4.0,0000*7F
$GPRMC,030953.000,A,2805.8247,N,08227.8609,W,0.00,4.80,101017,,,D*71
$GPGGA,030841.000,2805.8248,N,08227.8608,W,2,07,1.2,14.9,M,-29.9,M,2.0,0000*78
$GPRMC,030929.000,A,2805.8247,N,08227.8609,W,0.00,4.80,101017,,,D*7C
$GPRMC,030640.000,A,2805.8244,N,08227.8608,W,0.00,4.80,101017,,,D*7E
$GPGSV,3,3,12,29,09,061,00,30,00,234,00,31,50,023,00,32,37,105,00*7E
$GPGSV,3,3,12,29,09,061,00,30,00,234,00,31,50,023,00,32,37,105,00*7E
$GPGSV,3,3,12,29,09,061,00,30,00,234,00,31,50,023,00,32,37,105,00*7E
$GPGSV,3,3,12,29,09,061,00,30,00,234,00,31,50,023,00,32,37,105,00*7E
$GPGSV,3,3,12,29,09,061,00,30,00,234,00,31,50,023,00,32,37,105,00*7E
$GPGSV,3,3,12,29,09,061,00,30,00,234,00,31,50,023,00,32,37,105,00*7E
$GPGSV,3,3,12,29,09,061,00,30,00,234,00,31,50,023,00,32,37,105,00*7E
$GPGSV,3,3,12,29,09,061,00,30,00,234,00,31,50,023,00,32,37,105,00*7E
$GPGSV,3,3,12,29,09,061,00,30,00,234,00,31,50,023,00,32,37,105,00*7E
$GPGSV,3,3,12,29,09,061,00,30,00,234,00,31,50,023,00,32,37,105,00*7E
$GPGSV,3,3,12,29,09,061,00,30,00,234,00,31,50,023,00,32,37,105,00*7E
$GPRMC,030751.000,A,2805.8248,N,08227.8608,W,0.00,4.80,101017,,,D*73
$GPGGA,030839.000,2805.8248,N,08227.8608,W,2,07,1.2,14.9,M,-29.9,M,2.0,0000*77
$HCHDM,064.2,M*29
$GPGSV,3,3,10,31,49,024,00,32,37,105,00*70
$GPRMC,031005.000,A,2805.8247,N,08227.8609,W,0.00,4.80,101017,,,D*7A
$GPRMC,030932.000,A,2805.8247,N,08227.8609,W,0.00,4.80,101017,,,D*76
$GPRMC,030708.000,A,2805.8247,N,08227.8608,W,0.00,4.80,101017,,,D*70
$GPGSV,3,3,12,16,46,197,00,22,49,278,42,25,01,036,00,26,77,168,00*7E
$GPGSV,3,3,12,16,46,197,00,22,49,278,42,25,01,036,00,26,77,168,00*7E
$GPGSV,3,3,12,16,46,197,00,22,49,278,42,25,01,036,00,26,77,168,00*7E
$GPGSV,3,3,12,16,46,197,00,22,49,278,42,25,01,036,00,26,77,168,00*7E
$GPGSV,3,3,12,16,46,197,00,22,49,278,42,25,01,036,00,26,77,168,00*7E
$GPGSV,3,3,12,16,46,197,00,22,49,278,42,25,01,036,00,26,77,168,00*7E
$GPGSV,3,3,12,16,46,197,00,22,49,278,42,25,01,036,00,26,77,168,00*7E
$GPGSV,3,3,12,16,46,197,00,22,49,278,42,25,01,036,00,26,77,168,00*7E
$GPGSV,3,3,12,16,46,197,00,22,49,278,42,25,01,036,00,26,77,168,00*7E
$GPAPB,V,V,,,N,V,V,,,,,,,,N*68
$GPAPB,V,V,,,N,V,V,,,,,,,,N*68
$GPAPB,V,V,,,N,V,V,,,,,,,,N*68
$GPAPB,V,V,,,N,V,V,,,,,,,,N*68
$GPAPB,V,V,,,N,V,V,,,,,,,,N*68
$GPAPB,V,V,,,N,V,V,,,,,,,,N*68
$GPAPB,V,V,,,N,V,V,,,,,,,,N*68
$GPAPB,V,V,,,N,V,V,,,,,,,,N*68
$GPAPB,V,V,,,N,V,V,,,,,,,,N*68
$GPAPB,V,V,,,N,V,V,,,,,,,,N*68
$GPAPB,V,V,,,N,V,V,,,,,,,,N*68
$GPAPB,V,V,,,N,V,V,,,,,,,,N*68
$GPAPB,V,V,,,N,V,V,,,,,,,,N*68
$GPAPB,V,V,,,N,V,V,,,,,,,,N*68
$GPAPB,V,V,,,N,V,V,,,,,,,,N*68
$GPAPB,V,V,,,N,V,V,,,,,,,,N*68
$GPAPB,V,V,,,N,V,V,,,,,,,,N*68
$GPAPB,V,V,,,N,V,V,,,,,,,,N*68
$GPAPB,V,V,,,N,V,V,,,,,,,,N*68
$GPAPB,V,V,,,N,V,V,,,,,,,,N*68
$GPAPB,V,V,,,N,V,V,,,,,,,,N*68
$GPAPB,V,V,,,N,V,V,,,,,,,,N*68
$GPAPB,V,V,,,N,V,V,,,,,,,,N*68
$GPAPB,V,V,,,N,V,V,,,,,,,,N*68
$GPAPB,V,V,,,N,V,V,,,,,,,,N*68
$GPAPB,V,V,,,N,V,V,,,,,,,,N*68
$GPAPB,V,V,,,N,V,V,,,,,,,,N*68
$GPAPB,V,V,,,N,V,V,,,,,,,,N*68
$GPAPB,V,V,,,N,V,V,,,,,,,,N*68
$GPAPB,V,V,,,N,V,V,,,,,,,,N*68
$GPAPB,V,V,,,N,V,V,,,,,,,,N*68
$GPAPB,V,V,,,N,V,V,,,,,,,,N*68
$GPAPB,V,V,,,N,V,V,,,,,,,,N*68
$GPAPB,V,V,,,N,V,V,,,,,,,,N*68
$GPAPB,V,V,,,N,V,V,,,,,,,,N*68
$GPAPB,V,V,,,N,V,V,,,,,,,,N*68
$GPAPB,V,V,,,N,V,V,,,,,,,,N*68
$GPAPB,V,V,,,N,V,V,,,,,,,,N*68
$GPAPB,V,V,,,N,V,V,,,,,,,,N*68
$GPAPB,V,V,,,N,V,V,,,,,,,,N*68
$GPAPB,V,V,,,N,V,V,,,,,,,,N*68
$GPAPB,V,V,,,N,V,V,,,,,,,,N*68
$GPAPB,V,V,,,N,V,V,,,,,,,,N*68
$GPAPB,V,V,,,N,V,V,,,,,,,,N*68
$GPAPB,V,V,,,N,V,V,,,,,,,,N*68
$GPAPB,V,V,,,N,V,V,,,,,,,,N*68
$GPAPB,V,V,,,N,V,V,,,,,,,,N*68
$GPAPB,V,V,,,N,V,V,,,,,,,,N*68
$GPAPB,V,V,,,N,V,V,,,,,,,,N*68
$GPGGA,030758.000,2805.8248,N,08227.8608,W,2,07,1.2,14.7,M,-29.9,M,2.0,0000*71
$GPRMC,030919.000,A,2805.8247,N,08227.8609,W,0.00,4.80,101017,,,D*7F
$GPWPL,2752.6790,N,08227.5750,W,DI F*30
$GPWPL,2752.6790,N,08227.5750,W,DI F*30
$GPWPL,2752.6790,N,08227.5750,W,DI F*30
$GPWPL,2752.6790,N,08227.5750,W,DI F*30
$GPWPL,2752.6790,N,08227.5750,W,DI F*30
$GPWPL,2752.6790,N,08227.5750,W,DI F*30
$GPWPL,2752.6790,N,08227.5750,W,DI F*30
$GPWPL,2752.6790,N,08227.5750,W,DI F*30
$GPWPL,2752.6790,N,08227.5750,W,DI F*30
$HCHDM,086.5,M*22
$GPRMC,030849.000,A,2805.8248,N,08227.8608,W,0.00,4.80,101017,,,D*75
$GPGSV,3,1,12,26,71,174,35,14,53,078,19,31,52,018,27,22,47,284,28*74
$GPGSA,M,3,26,14,31,22,32,16,03,,,,,,3.4,1.2,3.2*3D
$GPGSV,3,2,12,16,40,195,26,32,40,099,27,03,32,308,27,10,07,159,16*71
$GPGGA,031005.000,2805.8247,N,08227.8609,W,2,06,1.4,15.6,M,-29.9,M,2.0,0000*76
$GPGGA,030858.000,2805.8248,N,08227.8608,W,2,07,1.2,15.0,M,-29.9,M,2.0,0000*78
$GPRMC,031007.000,A,2805.8247,N,08227.8609,W,0.00,4.80,101017,,,D*78
$GPGSV,3,3,12,25,04,036,07,51,47,224,41,29,08,065,,01,06,255,*78
$GPRMC,030743.000,A,2805.8247,N,08227.8608,W,0.00,4.80,101017,,,D*7F
$GPGGA,030919.000,2805.8247,N,08227.8609,W,2,07,1.2,15.5,M,-29.9,M,2.0,0000*77
$GPGGA,030644.000,2805.8246,N,08227.8607,W,2,07,1.2,14.8,M,-29.9,M,4.0,0000*75
$GPRMC,030639.000,A,2805.8243,N,08227.8608,W,0.00,4.80,101017,,,D*77
$GPRMC,030719.000,A,2805.8247,N,08227.8608,W,0.00,4.80,101017,,,D*70
$HCHDM,070.1,M*2F
$GPRMC,030739.000,A,2805.8247,N,08227.8608,W,0.00,4.80,101017,,,D*72
$GPGSV,3,1,12,26,72,173,28,14,52,079,17,31,52,018,17,22,47,284,35*7D
$GPRMC,030843.000,A,2805.8248,N,08227.8608,W,0.00,4.80,101017,,,D*7F
$GPGSV,3,2,12,32,40,099,24,16,39,195,34,03,32,308,30,01,06,256,20*71
$GPGGA,030948.000,2805.8247,N,08227.8609,W,2,07,1.2,15.5,M,-29.9,M,2.0,0000*73
$GPGGA,030832.000,2805.8248,N,08227.8608,W,2,08,1.1,14.9,M,-29.9,M,2.0,0000*70
$GPRMC,030903.000,A,2805.8248,N,08227.8608,W,0.00,4.80,101017,,,D*7A
$GPRMC,030907.000,A,2805.8248,N,08227.8608,W,0.00,4.80,101017,,,D*7E
$HCHDM,103.7,M*2C
$GPRMC,031009.000,A,2805.8247,N,08227.8609,W,0.00,4.80,101017,,,D*76
$GPRMC,030848.000,A,2805.8248,N,08227.8608,W,0.00,4.80,101017,,,D*74
$GPGSV,3,1,12,26,71,174,36,14,53,078,21,31,52,018,25,22,47,284,29*7F
$GPGGA,030953.000,2805.8247,N,08227.8609,W,2,07,1.2,15.6,M,-29.9,M,2.0,0000*7A
$HCHDM,140.0,M*2C
$GPGGA,030955.000,2805.8247,N,08227.8609,W,2,07,1.2,15.6,M,-29.9,M,3.0,0000*7D
$GPGGA,030813.000,2805.8248,N,08227.8608,W,2,07,1.2,14.8,M,-29.9,M,3.0,0000*7F
$GPRMC,030950.000,A,2805.8247,N,08227.8609,W,0.00,4.80,101017,,,D*72
$GPRMC,030817.000,A,2805.8248,N,08227.8608,W,0.00,4.80,101017,,,D*7E
$GPRMC,030857.000,A,2805.8248,N,08227.8608,W,0.00,4.80,101017,,,D*7A
$GPGSV,3,2,12,09,00,304,00,10,03,159,00,11,00,236,00,12,00,029,00*75
$GPGSV,3,2,12,09,00,304,00,10,03,159,00,11,00,236,00,12,00,029,00*75
$GPRMC,030804.000,A,2805.8248,N,08227.8608,W,0.00,4.80,101017,,,D*7C
$GPRMC,030850.000,A,2805.8248,N,08227.8608,W,0.00,4.80,101017,,,D*7D
$GPRMC,030913.000,A,2805.8248,N,08227.8608,W,0.00,4.80,101017,,,D*7B
$GPGSV,3,1,12,13,00,169,00,14,52,083,00,15,00,137,00,16,45,197,00*75
$GPGSV,3,1,12,13,00,169,00,14,52,083,00,15,00,137,00,16,45,197,00*75
$GPGSV,3,1,12,13,00,169,00,14,52,083,00,15,00,137,00,16,45,197,00*75
$GPGSV,3,1,12,13,00,169,00,14,52,083,00,15,00,137,00,16,45,197,00*75
$GPGSV,3,1,12,13,00,169,00,14,52,083,00,15,00,137,00,16,45,197,00*75
$GPGSV,3,1,12,13,00,169,00,14,52,083,00,15,00,137,00,16,45,197,00*75
$GPGSV,3,1,12,13,00,169,00,14,52,083,00,15,00,137,00,16,45,197,00*75
$GPGSV,3,1,12,13,00,169,00,14,52,083,00,15,00,137,00,16,45,197,00*75
$GPGSV,3,1,12,13,00,169,00,14,52,083,00,15,00,137,00,16,45,197,00*75
$GPGSV,3,2,12,16,41,195,34,32,39,100,18,03,33,307,09,51,47,224,41*78
$GPGSV,3,2,12,09,00,303,00,10,03,159,00,11,00,236,00,12,00,029,00*72
$GPGSV,3,2,12,09,00,303,00,10,03,159,00,11,00,236,00,12,00,029,00*72
$GPGSV,3,2,12,09,00,303,00,10,03,159,00,11,00,236,00,12,00,029,00*72
$GPGSV,3,2,12,09,00,303,00,10,03,159,00,11,00,236,00,12,00,029,00*72
$GPGSV,3,2,12,09,00,303,00,10,03,159,00,11,00,236,00,12,00,029,00*72
$GPGSV,3,2,12,09,00,303,00,10,03,159,00,11,00,236,00,12,00,029,00*72
$GPGSV,3,2,12,09,00,303,00,10,03,159,00,11,00,236,00,12,00,029,00*72
$GPGSV,3,2,12,09,00,303,00,10,03,159,00,11,00,236,00,12,00,029,00*72
$GPGSV,3,2,12,09,00,303,00,10,03,159,00,11,00,236,00,12,00,029,00*72
$GPGSV,3,2,12,09,00,303,00,10,03,159,00,11,00,236,00,12,00,029,00*72
$GPRMC,030838.000,A,2805.8248,N,08227.8608,W,0.00,4.80,101017,,,D*73
$HCHDM,063.9,M*25
$GPRMC,030753.000,A,2805.8248,N,08227.8608,W,0.00,4.80,101017,,,D*71
$GPGSV,3,2,12,16,41,195,35,32,39,100,21,03,32,307,17,25,04,036,20*7F
$GPGGA,030842.000,2805.8248,N,08227.8608,W,2,07,1.2,15.0,M,-29.9,M,2.0,0000*73
$GPRMC,030723.000,A,2805.8247,N,08227.8608,W,0.00,4.80,101017,,,D*79
$GPRMC,030845.000,A,2805.8248,N,08227.8608,W,0.00,4.80,101017,,,D*79
$GPGGA,030757.000,2805.8248,N,08227.8608,W,2,07,1.2,14.7,M,-29.9,M,3.0,0000*7F
$GPGSV,3,3,12,25,05,036,20,51,47,224,41,29,08,065,,10,07,159,*72
$GPRMC,030946.000,A,2805.8247,N,08227.8609,W,0.00,4.80,101017,,,D*75
$GPRMC,030846.000,A,2805.8248,N,08227.8608,W,0.00,4.80,101017,,,D*7A
$HCHDM,066.2,M*2B
$GPRMC,030837.000,A,2805.8248,N,08227.8608,W,0.00,4.80,101017,,,D*7C
$GPRMC,030955.000,A,2805.8247,N,08227.8609,W,0.00,4.80,101017,,,D*77
$GPGGA,030811.000,2805.8248,N,08227.8608,W,2,07,1.2,14.8,M,-29.9,M,2.0,0000*7C
$GPGGA,030934.000,2805.8247,N,08227.8609,W,2,07,1.2,15.5,M,-29.9,M,2.0,0000*78
$GPRMC,030704.000,A,2805.8247,N,08227.8608,W,0.00,4.80,101017,,,D*7C
$GPGSV,3,3,12,21,00,119,00,22,49,280,31,23,08,310,00,24,00,088,00*78
$HCHDM,134.3,M*2C
$GPGSV,3,3,12,23,05,307,20,51,47,224,41,29,08,065,,10,07,159,*75
$GPGGA,030707.000,2805.8247,N,08227.8608,W,2,07,1.2,14.7,M,-29.9,M,2.0,0000*74
$GPRMC,030923.000,A,2805.8247,N,08227.8609,W,0.00,4.80,101017,,,D*76
$GPGGA,030652.000,2805.8247,N,08227.8607,W,2,08,1.1,14.8,M,-29.9,M,2.0,0000*79
$HCHDM,080.8,M*29
$GPRMC,030658.000,A,2805.8247,N,08227.8607,W,0.00,4.80,101017,,,D*7B
$HCHDM,063.5,M*29
$GPGSV,3,2,12,16,40,195,27,32,39,100,26,03,32,307,26,25,04,036,04*7E
$GPRMC,030744.000,A,2805.8247,N,08227.8608,W,0.00,4.80,101017,,,D*78
$GPRMC,030657.000,A,2805.8247,N,08227.8607,W,0.00,4.80,101017,,,D*74
$GPRMC,030642.000,A,2805.8244,N,08227.8608,W,0.00,4.80,101017,,,D*7C
$GPRMC,030909.000,A,2805.8248,N,08227.8608,W,0.00,4.80,101017,,,D*70
$GPRMC,030904.000,A,2805.8248,N,08227.8608,W,0.00,4.80,101017,,,D*7D
$GPGGA,030724.000,2805.8247,N,08227.8608,W,2,07,1.2,14.7,M,-29.9,M,2.0,0000*75
$GPRMC,030755.000,A,2805.8248,N,08227.8608,W,0.00,4.80,101017,,,D*77
$GPGGA,030831.000,2805.8248,N,08227.8608,W,2,08,1.1,14.9,M,-29.9,M,3.0,0000*72
$GPRMC,030918.000,A,2805.8247,N,08227.8609,W,0.00,4.80,101017,,,D*7E
$GPGGA,030945.000,2805.8247,N,08227.8609,W,2,07,1.2,15.5,M,-29.9,M,2.0,0000*7E
$GPGGA,030700.000,2805.8247,N,08227.8608,W,2,07,1.2,14.8,M,-29.9,M,2.0,0000*7C
$GPGGA,031001.000,2805.8247,N,08227.8609,W,2,06,1.4,15.6,M,-29.9,M,2.0,0000*72
$GPGGA,030936.000,2805.8247,N,08227.8609,W,2,07,1.2,15.5,M,-29.9,M,2.0,0000*7A
$GPRMC,030945.000,A,2805.8247,N,08227.8609,W,0.00,4.80,101017,,,D*76
$GPGGA,030651.000,2805.8247,N,08227.8607,W,2,08,1.1,14.8,M,-29.9,M,2.0,0000*7A
$HCHDM,139.6,M*24
$GPGGA,030833.000,2805.8248,N,08227.8608,W,2,08,1.1,14.9,M,-29.9,M,3.0,0000*70
$GPRMC,030942.000,A,2805.8247,N,08227.8609,W,0.00,4.80,101017,,,D*71
$GPRMC,030931.000,A,2805.8247,N,08227.8609,W,0.00,4.80,101017,,,D*75
$GPGGA,030851.000,2805.8248,N,08227.8608,W,2,07,1.2,15.0,M,-29.9,M,5.0,0000*76
$GPGGA,030823.000,2805.8248,N,08227.8608,W,2,07,1.2,14.9,M,-29.9,M,2.0,0000*7C
$GPGGA,030729.000,2805.8247,N,08227.8608,W,2,07,1.2,14.7,M,-29.9,M,2.0,0000*78
$GPGGA,030902.000,2805.8248,N,08227.8608,W,2,07,1.2,15.0,M,-29.9,M,4.0,0000*70
$GPGSA,A,1,,,,,,,,,,,,,,,*1E
$GPGSA,A,1,,,,,,,,,,,,,,,*1E
$GPGSA,A,1,,,,,,,,,,,,,,,*1E
$GPGSA,A,1,,,,,,,,,,,,,,,*1E
$GPGSA,A,1,,,,,,,,,,,,,,,*1E
$GPGSA,A,1,,,,,,,,,,,,,,,*1E
$GPGSA,A,1,,,,,,,,,,,,,,,*1E
$GPGSA,A,1,,,,,,,,,,,,,,,*1E
$GPGSA,A,1,,,,,,,,,,,,,,,*1E
$GPGSA,A,1,,,,,,,,,,,,,,,*1E
$GPGSA,A,1,,,,,,,,,,,,,,,*1E
$GPGSA,A,1,,,,,,,,,,,,,,,*1E
$GPGSA,A,1,,,,,,,,,,,,,,,*1E
$GPGSA,A,1,,,,,,,,,,,,,,,*1E
$GPGSA,A,1,,,,,,,,,,,,,,,*1E
$GPGSA,A,1,,,,,,,,,,,,,,,*1E
$GPGSA,A,1,,,,,,,,,,,,,,,*1E
$GPGSA,A,1,,,,,,,,,,,,,,,*1E
$GPGSA,A,1,,,,,,,,,,,,,,,*1E
$GPGSA,A,1,,,,,,,,,,,,,,,*1E
$GPGSA,A,1,,,,,,,,,,,,,,,*1E
$GPGSA,A,1,,,,,,,,,,,,,,,*1E
$GPGSA,A,1,,,,,,,,,,,,,,,*1E
$GPGSA,A,1,,,,,,,,,,,,,,,*1E
$GPGSA,A,1,,,,,,,,,,,,,,,*1E
$GPGSA,A,1,,,,,,,,,,,,,,,*1E
$GPGSA,A,1,,,,,,,,,,,,,,,*1E
$GPGSA,A,1,,,,,,,,,,,,,,,*1E
$GPGSA,A,1,,,,,,,,,,,,,,,*1E
$GPGSA,A,1,,,,,,,,,,,,,,,*1E
$GPGSA,A,1,,,,,,,,,,,,,,,*1E
$GPGSA,A,1,,,,,,,,,,,,,,,*1E
$GPGSA,A,1,,,,,,,,,,,,,,,*1E
$GPGSA,A,1,,,,,,,,,,,,,,,*1E
$GPGSA,A,1,,,,,,,,,,,,,,,*1E
$GPGSA,A,1,,,,,,,,,,,,,,,*1E
$GPGSA,A,1,,,,,,,,,,,,,,,*1E
$GPGSA,A,1,,,,,,,,,,,,,,,*1E
$GPGSA,A,1,,,,,,,,,,,,,,,*1E
$GPGSA,A,1,,,,,,,,,,,,,,,*1E
$GPGSA,A,1,,,,,,,,,,,,,,,*1E
$GPGSA,A,1,,,,,,,,,,,,,,,*1E
$GPGSA,A,1,,,,,,,,,,,,,,,*1E
$GPGSA,A,1,,,,,,,,,,,,,,,*1E
$GPGSA,A,1,,,,,,,,,,,,,,,*1E
$GPGSA,A,1,,,,,,,,,,,,,,,*1E
$GPGSA,A,1,,,,,,,,,,,,,,,*1E
$GPGSA,A,1,,,,,,,,,,,,,,,*1E
$GPGSA,A,1,,,,,,,,,,,,,,,*1E
$GPGGA,030844.000,2805.8248,N,08227.8608,W,2,07,1.2,15.0,M,-29.9,M,2.0,0000*75
$GPRMC,030823.000,A,2805.8248,N,08227.8608,W,0.00,4.80,101017,,,D*79
$GPGGA,030935.000,2805.8247,N,08227.8609,W,2,07,1.2,15.5,M,-29.9,M,2.0,0000*79
$HCHDM,065.0,M*2A
$GPGSV,3,2,12,16,40,195,35,32,40,099,26,03,32,308,30,01,06,255,20*7F
$GPRMC,030940.000,A,2805.8247,N,08227.8609,W,0.00,4.80,101017,,,D*73
$GPGSV,3,3,12,23,06,308,18,51,47,224,42,29,08,064,,10,06,159,*71
$GPGSV,3,2,12,25,01,036,00,26,77,168,00,27,03,174,00,28,00,229,00*74
$GPGSV,3,2,12,25,01,036,00,26,77,168,00,27,03,174,00,28,00,229,00*74
$GPGSV,3,2,12,25,01,036,00,26,77,168,00,27,03,174,00,28,00,229,00*74
$GPGSV,3,2,12,25,01,036,00,26,77,168,00,27,03,174,00,28,00,229,00*74
$GPGSV,3,2,12,25,01,036,00,26,77,168,00,27,03,174,00,28,00,229,00*74
$GPGSV,3,2,12,25,01,036,00,26,77,168,00,27,03,174,00,28,00,229,00*74
$GPGSV,3,2,12,25,01,036,00,26,77,168,00,27,03,174,00,28,00,229,00*74
$GPGSV,3,2,12,25,01,036,00,26,77,168,00,27,03,174,00,28,00,229,00*74
$GPGSV,3,2,12,25,01,036,00,26,77,168,00,27,03,174,00,28,00,229,00*74
$GPGSV,3,2,12,25,01,036,00,26,77,168,00,27,03,174,00,28,00,229,00*74
$GPGSV,3,2,12,16,40,195,26,32,39,100,28,03,32,307,28,25,04,036,04*7F
$GPGGA,030937.000,2805.8247,N,08227.8609,W,2,07,1.2,15.5,M,-29.9,M,3.0,0000*7A
$GPGSV,3,2,12,16,40,195,26,32,40,099,28,03,32,308,28,25,04,036,05*7E
$GPRMC,,V,,,,,,,010100,5.0,W,N*2F
$GPRMC,,V,,,,,,,010100,5.0,W,N*2F
$GPRMC,,V,,,,,,,010100,5.0,W,N*2F
$GPRMC,,V,,,,,,,010100,5.0,W,N*2F
$GPRMC,,V,,,,,,,010100,5.0,W,N*2F
$GPRMC,,V,,,,,,,010100,5.0,W,N*2F
$GPRMC,,V,,,,,,,010100,5.0,W,N*2F
$GPRMC,,V,,,,,,,010100,5.0,W,N*2F
$GPRMC,,V,,,,,,,010100,5.0,W,N*2F
$GPRMC,,V,,,,,,,010100,5.0,W,N*2F
$GPRMC,,V,,,,,,,010100,5.0,W,N*2F
$GPRMC,,V,,,,,,,010100,5.0,W,N*2F
$GPRMC,,V,,,,,,,010100,5.0,W,N*2F
$GPRMC,,V,,,,,,,010100,5.0,W,N*2F
$GPRMC,,V,,,,,,,010100,5.0,W,N*2F
$GPRMC,,V,,,,,,,010100,5.0,W,N*2F
$GPRMC,,V,,,,,,,010100,5.0,W,N*2F
$GPRMC,,V,,,,,,,010100,5.0,W,N*2F
$GPRMC,,V,,,,,,,010100,5.0,W,N*2F
$GPRMC,,V,,,,,,,010100,5.0,W,N*2F
$GPRMC,,V,,,,,,,010100,5.0,W,N*2F
$GPRMC,,V,,,,,,,010100,5.0,W,N*2F
$GPRMC,,V,,,,,,,010100,5.0,W,N*2F
$GPRMC,,V,,,,,,,010100,5.0,W,N*2F
$GPRMC,,V,,,,,,,010100,5.0,W,N*2F
$GPRMC,,V,,,,,,,010100,5.0,W,N*2F
$GPRMC,,V,,,,,,,010100,5.0,W,N*2F
$GPRMC,,V,,,,,,,010100,5.0,W,N*2F
$GPRMC,,V,,,,,,,010100,5.0,W,N*2F
$GPRMC,,V,,,,,,,010100,5.0,W,N*2F
$GPRMC,,V,,,,,,,010100,5.0,W,N*2F
$GPRMC,,V,,,,,,,010100,5.0,W,N*2F
$GPRMC,,V,,,,,,,010100,5.0,W,N*2F
$GPRMC,,V,,,,,,,010100,5.0,W,N*2F
$GPRMC,,V,,,,,,,010100,5.0,W,N*2F
$GPRMC,,V,,,,,,,010100,5.0,W,N*2F
$GPRMC,,V,,,,,,,010100,5.0,W,N*2F
$GPRMC,,V,,,,,,,010100,5.0,W,N*2F
$GPRMC,,V,,,,,,,010100,5.0,W,N*2F
$GPRMC,,V,,,,,,,010100,5.0,W,N*2F
$GPRMC,,V,,,,,,,010100,5.0,W,N*2F
$GPRMC,,V,,,,,,,010100,5.0,W,N*2F
$GPRMC,,V,,,,,,,010100,5.0,W,N*2F
$GPRMC,,V,,,,,,,010100,5.0,W,N*2F
$GPRMC,,V,,,,,,,010100,5.0,W,N*2F
$GPRMC,,V,,,,,,,010100,5.0,W,N*2F
$GPRMC,,V,,,,,,,010100,5.0,W,N*2F
$GPRMC,,V,,,,,,,010100,5.0,W,N*2F
$GPRMC,,V,,,,,,,010100,5.0,W,N*2F
$GPGGA,030716.000,2805.8247,N,08227.8608,W,2,07,1.2,14.7,M,-29.9,M,2.0,0000*74
$GPRMC,030827.000,A,2805.8248,N,08227.8608,W,0.00,4.80,101017,,,D*7D
$GPGGA,030722.000,2805.8247,N,08227.8608,W,2,07,1.2,14.7,M,-29.9,M,2.0,0000*73
$GPRMC,030703.000,A,2805.8247,N,08227.8608,W,0.00,4.80,101017,,,D*7B
$GPGSV,3,3,12,10,07,159,17,51,47,224,42,29,08,065,,23,05,307,*72
$GPGGA,030723.000,2805.8247,N,08227.8608,W,2,07,1.2,14.7,M,-29.9,M,2.0,0000*72
$HCHDM,069.3,M*25
$GPGGA,030954.000,2805.8247,N,08227.8609,W,2,07,1.2,15.6,M,-29.9,M,2.0,0000*7D
$GPGGA,030701.000,2805.8247,N,08227.8608,W,2,07,1.2,14.8,M,-29.9,M,3.0,0000*7C
$GPGGA,030900.000,2805.8248,N,08227.8608,W,2,07,1.2,15.0,M,-29.9,M,2.0,0000*74
$GPGGA,030752.000,2805.8248,N,08227.8608,W,2,07,1.2,14.7,M,-29.9,M,2.0,0000*7B
$GPGSV,3,1,12,26,71,174,33,14,53,077,26,31,52,017,22,22,47,285,35*76
$GPGGA,030805.000,2805.8248,N,08227.8608,W,2,07,1.2,14.7,M,-29.9,M,2.0,0000*76
$HCHDM,079.2,M*25
$GPRMC,030709.000,A,2805.8247,N,08227.8608,W,0.00,4.80,101017,,,D*71
$GPGSV,3,3,12,29,08,064,,10,06,159,,01,06,255,,23,05,307,*74
$GPGSV,3,1,12,26,70,175,34,14,53,076,30,31,52,017,28,22,47,286,37*7C
$GPGGA,030927.000,2805.8247,N,08227.8609,W,2,07,1.2,15.5,M,-29.9,M,2.0,0000*7A
$GPGGA,030815.000,2805.8248,N,08227.8608,W,2,07,1.2,14.8,M,-29.9,M,5.0,0000*7F
$GPGGA,030733.000,2805.8247,N,08227.8608,W,2,07,1.2,14.7,M,-29.9,M,5.0,0000*74
$GPGSV,3,1,12,26,71,174,36,14,53,077,22,31,52,018,25,22,47,285,32*78
$GPRMC,030916.000,A,2805.8247,N,08227.8609,W,0.00,4.80,101017,,,D*70
$GPRMC,030831.000,A,2805.8248,N,08227.8608,W,0.00,4.80,101017,,,D*7A
$GPRMC,030839.000,A,2805.8248,N,08227.8608,W,0.00,4.80,101017,,,D*72
$GPGGA,030913.000,2805.8248,N,08227.8608,W,2,07,1.2,15.0,M,-29.9,M,2.0,0000*76
$GPGGA,030731.000,2805.8247,N,08227.8608,W,2,07,1.2,14.7,M,-29.9,M,3.0,0000*70
$GPGGA,030657.000,2805.8247,N,08227.8607,W,2,07,1.2,14.8,M,-29.9,M,5.0,0000*77
$GPGGA,030942.000,2805.8247,N,08227.8609,W,2,07,1.2,15.5,M,-29.9,M,2.0,0000*79
$HCHDM,125.9,M*26
$GPGGA,030744.000,2805.8247,N,08227.8608,W,2,07,1.2,14.7,M,-29.9,M,2.0,0000*73
$GPGGA,030653.000,2805.8247,N,08227.8607,W,2,08,1.1,14.8,M,-29.9,M,2.0,0000*78
$GPGGA,030742.000,2805.8247,N,08227.8608,W,2,07,1.2,14.7,M,-29.9,M,2.0,0000*75
$HCHDM,127.8,M*25
$GPGSV,3,1,12,03,36,304,00,06,00,343,00,07,00,248,00,08,00,201,00*79
$GPGSV,3,1,12,03,36,304,00,06,00,343,00,07,00,248,00,08,00,201,00*79
$GPGGA,030709.000,2805.8247,N,08227.8608,W,2,07,1.2,14.7,M,-29.9,M,3.0,0000*7B
$GPGGA,030710.000,2805.8247,N,08227.8608,W,2,07,1.2,14.7,M,-29.9,M,2.0,0000*72
$GPRMC,031004.000,A,2805.8247,N,08227.8609,W,0.00,4.80,101017,,,D*7B
$GPRTE,1,1,c,DI F-DI-BASIN,DI F,DI G,DI C,DI-BASIN*1E
$GPRTE,1,1,c,DI F-DI-BASIN,DI F,DI G,DI C,DI-BASIN*1E
$GPRTE,1,1,c,DI F-DI-BASIN,DI F,DI G,DI C,DI-BASIN*1E
$GPRTE,1,1,c,DI F-DI-BASIN,DI F,DI G,DI C,DI-BASIN*1E
$GPRTE,1,1,c,DI F-DI-BASIN,DI F,DI G,DI C,DI-BASIN*1E
$GPRTE,1,1,c,DI F-DI-BASIN,DI F,DI G,DI C,DI-BASIN*1E
$GPRTE,1,1,c,DI F-DI-BASIN,DI F,DI G,DI C,DI-BASIN*1E
$GPRTE,1,1,c,DI F-DI-BASIN,DI F,DI G,DI C,DI-BASIN*1E
$GPRTE,1,1,c,DI F-DI-BASIN,DI F,DI G,DI C,DI-BASIN*1E
$GPRTE,1,1,c,DI F-DI-BASIN,DI F,DI G,DI C,DI-BASIN*1E
$GPRTE,1,1,c,DI F-DI-BASIN,DI F,DI G,DI C,DI-BASIN*1E
$GPGSV,3,3,12,25,04,036,05,51,47,224,40,29,08,065,,01,06,255,*7B
$GPGGA,030654.000,2805.8247,N,08227.8607,W,2,08,1.1,14.8,M,-29.9,M,2.0,0000*7F
$GPGSV,3,2,12,16,40,195,26,32,40,099,28,03,32,308,28,25,04,036,04*7F
$GPGSV,3,2,12,16,41,195,34,32,39,100,20,03,33,307,08,01,05,254,23*72
$HCHDM,065.9,M*23
$GPGSV,3,2,12,22,49,278,41,26,77,168,00,27,03,174,00,28,00,229,00*72
$GPGGA,030906.000,2805.8248,N,08227.8608,W,2,07,1.2,15.0,M,-29.9,M,2.0,0000*72
$GPRMC,030841.000,A,2805.8248,N,08227.8608,W,0.00,4.80,101017,,,D*7D
$GPRMC,030747.000,A,2805.8248,N,08227.8608,W,0.00,4.80,101017,,,D*74
$GPGGA,030923.000,2805.8247,N,08227.8609,W,2,07,1.2,15.5,M,-29.9,M,2.0,0000*7E
$GPRMC,030852.000,A,2805.8248,N,08227.8608,W,0.00,4.80,101017,,,D*7F
$GPRMC,030821.000,A,2805.8248,N,08227.8608,W,0.00,4.80,101017,,,D*7B
$GPGSV,3,1,12,26,71,174,34,31,52,018,27,22,47,284,28,16,40,195,27*7A
$GPRMC,030926.000,A,2805.8247,N,08227.8609,W,0.00,4.80,101017,,,D*73
$GPGGA,030834.000,2805.8248,N,08227.8608,W,2,07,1.2,14.9,M,-29.9,M,2.0,0000*7A
$GPGGA,030938.000,2805.8247,N,08227.8609,W,2,07,1.2,15.5,M,-29.9,M,2.0,0000*74
$GPRMC,030707.000,A,2805.8247,N,08227.8608,W,0.00,4.80,101017,,,D*7F
$GPGSV,3,3,12,25,04,036,08,51,47,224,40,29,08,065,,01,06,255,*76
$GPRMC,030911.000,A,2805.8248,N,08227.8608,W,0.00,4.80,101017,,,D*79
$GPRMC,030746.000,A,2805.8248,N,08227.8608,W,0.00,4.80,101017,,,D*75
$GPGGA,030816.000,2805.8248,N,08227.8608,W,2,07,1.2,14.8,M,-29.9,M,2.0,0000*7B
$GPGGA,030756.000,2805.8248,N,08227.8608,W,2,07,1.2,14.7,M,-29.9,M,2.0,0000*7F
$GPGSV,3,2,12,32,40,099,24,16,39,195,34,03,32,308,30,29,08,065,10*74
$GPGGA,030717.000,2805.8247,N,08227.8608,W,2,07,1.2,14.7,M,-29.9,M,2.0,0000*75
$GPRMC,030925.000,A,2805.8247,N,08227.8609,W,0.00,4.80,101017,,,D*70
$GPGGA,,,,,,0,00,,,M,,M,,*66
$GPGGA,,,,,,0,00,,,M,,M,,*66
$GPGGA,,,,,,0,00,,,M,,M,,*66
$GPGGA,,,,,,0,00,,,M,,M,,*66
$GPGGA,,,,,,0,00,,,M,,M,,*66
$GPGGA,,,,,,0,00,,,M,,M,,*66
$GPGGA,,,,,,0,00,,,M,,M,,*66
$GPGGA,,,,,,0,00,,,M,,M,,*66
$GPGGA,,,,,,0,00,,,M,,M,,*66
$GPGGA,,,,,,0,00,,,M,,M,,*66
$GPGGA,,,,,,0,00,,,M,,M,,*66
$GPGGA,,,,,,0,00,,,M,,M,,*66
$GPGGA,,,,,,0,00,,,M,,M,,*66
$GPGGA,,,,,,0,00,,,M,,M,,*66
$GPGGA,,,,,,0,00,,,M,,M,,*66
$GPGGA,,,,,,0,00,,,M,,M,,*66
$GPGGA,,,,,,0,00,,,M,,M,,*66
$GPGGA,,,,,,0,00,,,M,,M,,*66
$GPGGA,,,,,,0,00,,,M,,M,,*66
$GPGGA,,,,,,0,00,,,M,,M,,*66
$GPGGA,,,,,,0,00,,,M,,M,,*66
$GPGGA,,,,,,0,00,,,M,,M,,*66
$GPGGA,,,,,,0,00,,,M,,M,,*66
$GPGGA,,,,,,0,00,,,M,,M,,*66
$GPGGA,,,,,,0,00,,,M,,M,,*66
$GPGGA,,,,,,0,00,,,M,,M,,*66
$GPGGA,,,,,,0,00,,,M,,M,,*66
$GPGGA,,,,,,0,00,,,M,,M,,*66
$GPGGA,,,,,,0,00,,,M,,M,,*66
$GPGGA,,,,,,0,00,,,M,,M,,*66
$GPGGA,,,,,,0,00,,,M,,M,,*66
$GPGGA,,,,,,0,00,,,M,,M,,*66
$GPGGA,,,,,,0,00,,,M,,M,,*66
$GPGGA,,,,,,0,00,,,M,,M,,*66
$GPGGA,,,,,,0,00,,,M,,M,,*66
$GPGGA,,,,,,0,00,,,M,,M,,*66
$GPGGA,,,,,,0,00,,,M,,M,,*66
$GPGGA,,,,,,0,00,,,M,,M,,*66
$GPGGA,,,,,,0,00,,,M,,M,,*66
$GPGGA,,,,,,0,00,,,M,,M,,*66
$GPGGA,,,,,,0,00,,,M,,M,,*66
$GPGGA,,,,,,0,00,,,M,,M,,*66
$GPGGA,,,,,,0,00,,,M,,M,,*66
$GPGGA,,,,,,0,00,,,M,,M,,*66
$GPGGA,,,,,,0,00,,,M,,M,,*66
$GPGGA,,,,,,0,00,,,M,,M,,*66
$GPGGA,,,,,,0,00,,,M,,M,,*66
$GPGGA,,,,,,0,00,,,M,,M,,*66
$GPGGA,,,,,,0,00,,,M,,M,,*66
$GPGGA,030852.000,2805.8248,N,08227.8608,W,2,07,1.2,15.0,M,-29.9,M,2.0,0000*72
$GPGGA,030749.000,2805.8248,N,08227.8608,W,2,07,1.2,14.7,M,-29.9,M,3.0,0000*70
$GPGGA,030835.000,2805.8248,N,08227.8608,W,2,07,1.2,14.9,M,-29.9,M,2.0,0000*7B
$HCHDM,068.7,M*20
$GPGSV,3,2,12,16,41,195,35,32,39,100,25,03,32,307,24,51,47,224,43*7B
$GPGGA,030819.000,2805.8248,N,08227.8608,W,2,07,1.2,14.8,M,-29.9,M,3.0,0000*75
$GPXTE,V,V,,,N,N*5E
$GPXTE,V,V,,,N,N*5E
$GPXTE,V,V,,,N,N*5E
$GPXTE,V,V,,,N,N*5E
$GPXTE,V,V,,,N,N*5E
$GPXTE,V,V,,,N,N*5E
$GPXTE,V,V,,,N,N*5E
$GPXTE,V,V,,,N,N*5E
$GPXTE,V,V,,,N,N*5E
$GPXTE,V,V,,,N,N*5E
$GPXTE,V,V,,,N,N*5E
$GPXTE,V,V,,,N,N*5E
$GPXTE,V,V,,,N,N*5E
$GPXTE,V,V,,,N,N*5E
$GPXTE,V,V,,,N,N*5E
$GPXTE,V,V,,,N,N*5E
$GPXTE,V,V,,,N,N*5E
$GPXTE,V,V,,,N,N*5E
$GPXTE,V,V,,,N,N*5E
$GPXTE,V,V,,,N,N*5E
$GPXTE,V,V,,,N,N*5E
$GPXTE,V,V,,,N,N*5E
$GPXTE,V,V,,,N,N*5E
$GPXTE,V,V,,,N,N*5E
$GPXTE,V,V,,,N,N*5E
$GPXTE,V,V,,,N,N*5E
$GPXTE,V,V,,,N,N*5E
$GPXTE,V,V,,,N,N*5E
$GPXTE,V,V,,,N,N*5E
$GPXTE,V,V,,,N,N*5E
$GPXTE,V,V,,,N,N*5E
$GPXTE,V,V,,,N,N*5E
$GPXTE,V,V,,,N,N*5E
$GPXTE,V,V,,,N,N*5E
$GPXTE,V,V,,,N,N*5E
$GPXTE,V,V,,,N,N*5E
$GPXTE,V,V,,,N,N*5E
$GPXTE,V,V,,,N,N*5E
$GPXTE,V,V,,,N,N*5E
$GPXTE,V,V,,,N,N*5E
$GPXTE,V,V,,,N,N*5E
$GPXTE,V,V,,,N,N*5E
$GPXTE,V,V,,,N,N*5E
$GPXTE,V,V,,,N,N*5E
$GPXTE,V,V,,,N,N*5E
$GPXTE,V,V,,,N,N*5E
$GPXTE,V,V,,,N,N*5E
$GPXTE,V,V,,,N,N*5E
$GPXTE,V,V,,,N,N*5E
$GPGGA,030736.000,2805.8247,N,08227.8608,W,2,07,1.2,14.7,M,-29.9,M,2.0,0000*76
$GPGGA,030840.000,2805.8248,N,08227.8608,W,2,07,1.2,14.9,M,-29.9,M,2.0,0000*79
$GPGGA,030741.000,2805.8247,N,08227.8608,W,2,07,1.2,14.7,M,-29.9,M,2.0,0000*76
$HCHDM,113.6,M*2C
$GPGSV,3,1,12,03,36,304,00,06,00,344,00,07,00,248,00,08,00,201,00*7E
$GPGSV,3,1,12,03,36,304,00,06,00,344,00,07,00,248,00,08,00,201,00*7E
$GPGSV,3,1,12,03,36,304,00,06,00,344,00,07,00,248,00,08,00,201,00*7E
$GPGSV,3,1,12,03,36,304,00,06,00,344,00,07,00,248,00,08,00,201,00*7E
$GPGSV,3,1,12,03,36,304,00,06,00,344,00,07,00,248,00,08,00,201,00*7E
$GPGGA,030830.000,2805.8248,N,08227.8608,W,2,08,1.1,14.9,M,-29.9,M,2.0,0000*72
$GPRMC,030801.000,A,2805.8248,N,08227.8608,W,0.00,4.80,101017,,,D*79
$GPRMC,030809.000,A,2805.8248,N,08227.8608,W,0.00,4.80,101017,,,D*71
$GPRMC,031002.000,A,2805.8247,N,08227.8609,W,0.00,4.80,101017,,,D*7D
$GPGSV,3,1,12,26,72,173,28,14,52,079,17,31,52,018,18,22,47,284,35*72
$GPRMC,030724.000,A,2805.8247,N,08227.8608,W,0.00,4.80,101017,,,D*7E
$GPGSV,3,1,12,26,70,175,34,14,53,076,30,31,52,017,29,22,47,286,37*7D
$HCHDM,118.7,M*26
$GPGGA,030646.000,2805.8247,N,08227.8607,W,2,08,1.1,14.8,M,-29.9,M,2.0,0000*7C
$GPGGA,030837.000,2805.8248,N,08227.8608,W,2,07,1.2,14.9,M,-29.9,M,3.0,0000*78
$GPRMC,030851.000,A,2805.8248,N,08227.8608,W,0.00,4.80,101017,,,D*7C
$GPGGA,030821.000,2805.8248,N,08227.8608,W,2,07,1.2,14.8,M,-29.9,M,5.0,0000*78
$HCHDM,084.5,M*20
$GPGGA,030730.000,2805.8247,N,08227.8608,W,2,07,1.2,14.7,M,-29.9,M,2.0,0000*70
$GPGSV,3,3,12,10,07,159,16,51,47,224,42,29,08,065,,23,05,307,*73
$GPGSV,3,2,12,32,40,099,24,16,39,195,35,03,32,308,30,51,47,224,41*72
$HCHDM,082.6,M*25
$HCHDM,062.7,M*2A
$HCHDM,062.7,M*2A
$HCHDM,064.5,M*2E
$HCHDM,095.8,M*2D
$HCHDM,062.7,M*2A
$HCHDM,064.5,M*2E
$HCHDM,095.8,M*2D
$HCHDM,062.7,M*2A
$HCHDM,062.7,M*2A
$HCHDM,064.5,M*2E
$HCHDM,095.8,M*2D
$HCHDM,062.7,M*2A
$HCHDM,062.7,M*2A
$HCHDM,064.5,M*2E
$HCHDM,095.8,M*2D
$HCHDM,062.7,M*2A
$GPGGA,030702.000,2805.8247,N,08227.8608,W,2,07,1.2,14.8,M,-29.9,M,4.0,0000*78
$GPGSV,3,2,12,32,40,099,23,16,39,195,36,03,32,308,30,25,05,036,16*70
$HCHDM,062.7,M*2A
$HCHDM,072.7,M*2B
$HCHDM,067.0,M*28
$GPGGA,030804.000,2805.8248,N,08227.8608,W,2,07,1.2,14.7,M,-29.9,M,2.0,0000*77
$GPGGA,030911.000,2805.8248,N,08227.8608,W,2,06,1.3,15.0,M,-29.9,M,2.0,0000*74
$GPRMC,030830.000,A,2805.8248,N,08227.8608,W,0.00,4.80,101017,,,D*7B
$GPRMC,030937.000,A,2805.8247,N,08227.8609,W,0.00,4.80,101017,,,D*73
$GPRMC,030756.000,A,2805.8248,N,08227.8608,W,0.00,4.80,101017,,,D*74
$GPGGA,031004.000,2805.8247,N,08227.8609,W,2,06,1.4,15.6,M,-29.9,M,2.0,0000*77
$GPGSV,3,2,12,25,01,036,00,26,76,170,00,27,02,175,00,28,00,230,00*74
$GPGSV,3,2,12,25,01,036,00,26,76,170,00,27,02,175,00,28,00,230,00*74
$HCHDM,063.1,M*2D
$GPGSV,3,2,12,16,41,195,34,32,39,100,18,03,32,307,16,51,47,224,44*72
$GPRMC,030930.000,A,2805.8247,N,08227.8609,W,0.00,4.80,101017,,,D*74
$GPRMC,030750.000,A,2805.8248,N,08227.8608,W,0.00,4.80,101017,,,D*72
$GPRMC,030901.000,A,2805.8248,N,08227.8608,W,0.00,4.80,101017,,,D*78
$GPGSV,3,3,12,23,05,307,21,51,47,224,41,29,08,065,,10,07,159,*74
$HCHDM,106.3,M*2D
$GPRMC,030853.000,A,2805.8248,N,08227.8608,W,0.00,4.80,101017,,,D*7E
$GPGSV,3,2,12,32,40,098,25,16,39,195,37,03,32,308,30,51,47,224,41*70
$GPGSV,3,1,12,26,70,175,35,14,53,076,30,31,52,017,25,22,47,286,37*70
$GPRMC,030832.000,A,2805.8248,N,08227.8608,W,0.00,4.80,101017,,,D*79
$GPRMC,030741.000,A,2805.8247,N,08227.8608,W,0.00,4.80,101017,,,D*7D
$GPGSA,M,3,26,14,31,22,16,32,,,,,,,4.3,1.4,4.1*3C
$GPGGA,030735.000,2805.8247,N,08227.8608,W,2,07,1.2,14.7,M,-29.9,M,2.0,0000*75
$GPGSV,3,1,12,26,71,174,32,14,53,078,20,31,52,018,23,22,47,284,32*76
$GPRMC,030922.000,A,2805.8247,N,08227.8609,W,0.00,4.80,101017,,,D*77
$GPRMC,030702.000,A,2805.8247,N,08227.8608,W,0.00,4.80,101017,,,D*7A
$GPGSV,3,2,12,32,40,099,26,16,40,195,35,03,32,308,29,01,06,255,20*77
$GPGGA,030814.000,2805.8248,N,08227.8608,W,2,07,1.2,14.8,M,-29.9,M,4.0,0000*7F
$GPGGA,030801.000,2805.8248,N,08227.8608,W,2,07,1.2,14.7,M,-29.9,M,3.0,0000*73
$GPGGA,030659.000,2805.8247,N,08227.8607,W,2,07,1.2,14.8,M,-29.9,M,2.0,0000*7E
$GPRMC,030745.000,A,2805.8247,N,08227.8608,W,0.00,4.80,101017,,,D*79
$GPRMC,030951.000,A,2805.8247,N,08227.8609,W,0.00,4.80,101017,,,D*73
$GPRMC,030701.000,A,2805.8247,N,08227.8608,W,0.00,4.80,101017,,,D*79
$GPGSV,3,3,12,25,04,036,09,51,47,224,39,29,08,065,,01,06,255,*79
$GPGGA,030824.000,2805.8248,N,08227.8608,W,2,07,1.2,14.9,M,-29.9,M,2.0,0000*7B
$GPGSV,3,2,12,32,40,099,24,16,40,195,34,03,32,308,30,01,06,255,20*7C
$GPRMC,030757.000,A,2805.8248,N,08227.8608,W,0.00,4.80,101017,,,D*75
$HCHDM,064.3,M*28
$HCHDM,115.8,M*24
$GPGSV,3,2,12,25,01,036,00,26,77,168,00,27,03,174,00,28,00,230,00*7C
$GPGSV,3,2,12,25,01,036,00,26,77,168,00,27,03,174,00,28,00,230,00*7C
$GPRMC,030921.000,A,2805.8247,N,08227.8609,W,0.00,4.80,101017,,,D*74
$GPRMC,030910.000,A,2805.8248,N,08227.8608,W,0.00,4.80,101017,,,D*78
$GPGSV,3,1,12,26,70,175,35,14,53,076,30,31,52,017,28,22,47,286,37*7D
$GPGSV,3,2,12,16,40,195,26,32,40,099,28,03,32,308,25,10,07,159,17*7D
$HCHDM,063.7,M*2B
$GPGSV,3,1,12,26,71,174,33,14,53,078,15,31,52,018,23,22,47,284,35*76
$GPRMC,030814.000,A,2805.8248,N,08227.8608,W,0.00,4.80,101017,,,D*7D
$GPGGA,030703.000,2805.8247,N,08227.8608,W,2,07,1.2,14.8,M,-29.9,M,2.0,0000*7F
$GPGSV,3,3,12,23,05,307,19,51,47,224,40,29,08,065,,10,07,159,*7E
$HCHDM,063.4,M*28
$GPGSV,3,1,12,26,72,173,28,14,52,079,16,31,52,018,19,22,47,284,36*71
$GPRMC,030855.000,A,2805.8248,N,08227.8608,W,0.00,4.80,101017,,,D*78
$GPRMC,030706.000,A,2805.8247,N,08227.8608,W,0.00,4.80,101017,,,D*7E
$GPGSV,3,1,12,26,71,174,33,14,53,077,27,31,52,017,23,22,47,285,35*76
$GPGGA,030748.000,2805.8248,N,08227.8608,W,2,07,1.2,14.7,M,-29.9,M,2.0,0000*70
$GPRMC,030828.000,A,2805.8248,N,08227.8608,W,0.00,4.80,101017,,,D*72
$PGRME,,M,,M,,M*00
$PGRME,,M,,M,,M*00
$PGRME,,M,,M,,M*00
$PGRME,,M,,M,,M*00
$PGRME,,M,,M,,M*00
$PGRME,,M,,M,,M*00
$PGRME,,M,,M,,M*00
$PGRME,,M,,M,,M*00
$PGRME,,M,,M,,M*00
$PGRME,,M,,M,,M*00
$PGRME,,M,,M,,M*00
$PGRME,,M,,M,,M*00
$PGRME,,M,,M,,M*00
$PGRME,,M,,M,,M*00
$PGRME,,M,,M,,M*00
$PGRME,,M,,M,,M*00
$PGRME,,M,,M,,M*00
$PGRME,,M,,M,,M*00
$PGRME,,M,,M,,M*00
$PGRME,,M,,M,,M*00
$PGRME,,M,,M,,M*00
$PGRME,,M,,M,,M*00
$PGRME,,M,,M,,M*00
$PGRME,,M,,M,,M*00
$PGRME,,M,,M,,M*00
$PGRME,,M,,M,,M*00
$PGRME,,M,,M,,M*00
$PGRME,,M,,M,,M*00
$PGRME,,M,,M,,M*00
$PGRME,,M,,M,,M*00
$PGRME,,M,,M,,M*00
$PGRME,,M,,M,,M*00
$PGRME,,M,,M,,M*00
$PGRME,,M,,M,,M*00
$PGRME,,M,,M,,M*00
$PGRME,,M,,M,,M*00
$PGRME,,M,,M,,M*00
$PGRME,,M,,M,,M*00
$PGRME,,M,,M,,M*00
$PGRME,,M,,M,,M*00
$PGRME,,M,,M,,M*00
$PGRME,,M,,M,,M*00
$PGRME,,M,,M,,M*00
$PGRME,,M,,M,,M*00
$PGRME,,M,,M,,M*00
$PGRME,,M,,M,,M*00
$PGRME,,M,,M,,M*00
$PGRME,,M,,M,,M*00
$PGRME,,M,,M,,M*00
$GPRMC,030752.000,A,2805.8248,N,08227.8608,W,0.00,4.80,101017,,,D*70
$GPGGA,030946.000,2805.8247,N,08227.8609,W,2,07,1.2,15.5,M,-29.9,M,2.0,0000*7D
$GPGGA,030712.000,2805.8247,N,08227.8608,W,2,07,1.2,14.7,M,-29.9,M,2.0,0000*70
$GPRMC,031001.000,A,2805.8247,N,08227.8609,W,0.00,4.80,101017,,,D*7E
$GPRMC,030840.000,A,2805.8248,N,08227.8608,W,0.00,4.80,101017,,,D*7C
$GPGGA,030847.000,2805.8248,N,08227.8608,W,2,07,1.2,15.0,M,-29.9,M,2.0,0000*76
$GPRMC,030815.000,A,2805.8248,N,08227.8608,W,0.00,4.80,101017,,,D*7C
$GPRMC,030802.000,A,2805.8248,N,08227.8608,W,0.00,4.80,101017,,,D*7A
$GPRMC,030822.000,A,2805.8248,N,08227.8608,W,0.00,4.80,101017,,,D*78
$GPRMC,030938.000,A,2805.8247,N,08227.8609,W,0.00,4.80,101017,,,D*7C
$GPGSV,3,1,12,26,71,174,35,14,53,077,22,31,52,018,26,22,47,285,31*7B
$GPGSV,3,1,12,01,04,253,00,02,00,016,00,16,46,197,00,22,49,278,40*72
$GPGSV,3,1,12,01,04,253,00,02,00,016,00,16,46,197,00,22,49,278,40*72
$GPGSV,3,1,12,01,04,253,00,02,00,016,00,16,46,197,00,22,49,278,40*72
$GPGGA,030753.000,2805.8248,N,08227.8608,W,2,07,1.2,14.7,M,-29.9,M,2.0,0000*7A
$HCHDM,120.8,M*22
$GPGGA,030958.000,2805.8247,N,08227.8609,W,2,06,1.4,15.6,M,-29.9,M,2.0,0000*76
$HCHDM,093.4,M*27
$HCHDM,076.2,M*2A
$GPGGA,031007.000,2805.8247,N,08227.8609,W,2,06,1.4,15.6,M,-29.9,M,3.0,0000*75
$GPRMC,030934.000,A,2805.8247,N,08227.8609,W,0.00,4.80,101017,,,D*70
$GPGGA,030747.000,2805.8248,N,08227.8608,W,2,07,1.2,14.7,M,-29.9,M,2.0,0000*7F
$GPRMC,030818.000,A,2805.8248,N,08227.8608,W,0.00,4.80,101017,,,D*71
$GPBWC,,,,,,,T,,M,,N,,N*74
$GPBWC,,,,,,,T,,M,,N,,N*74
$GPBWC,,,,,,,T,,M,,N,,N*74
$GPBWC,,,,,,,T,,M,,N,,N*74
$GPBWC,,,,,,,T,,M,,N,,N*74
$GPBWC,,,,,,,T,,M,,N,,N*74
$GPBWC,,,,,,,T,,M,,N,,N*74
$GPBWC,,,,,,,T,,M,,N,,N*74
$GPBWC,,,,,,,T,,M,,N,,N*74
$GPBWC,,,,,,,T,,M,,N,,N*74
$GPBWC,,,,,,,T,,M,,N,,N*74
$GPBWC,,,,,,,T,,M,,N,,N*74
$GPBWC,,,,,,,T,,M,,N,,N*74
$GPBWC,,,,,,,T,,M,,N,,N*74
$GPBWC,,,,,,,T,,M,,N,,N*74
$GPBWC,,,,,,,T,,M,,N,,N*74
$GPBWC,,,,,,,T,,M,,N,,N*74
$GPBWC,,,,,,,T,,M,,N,,N*74
$GPBWC,,,,,,,T,,M,,N,,N*74
$GPBWC,,,,,,,T,,M,,N,,N*74
$GPBWC,,,,,,,T,,M,,N,,N*74
$GPBWC,,,,,,,T,,M,,N,,N*74
$GPBWC,,,,,,,T,,M,,N,,N*74
$GPBWC,,,,,,,T,,M,,N,,N*74
$GPBWC,,,,,,,T,,M,,N,,N*74
$GPBWC,,,,,,,T,,M,,N,,N*74
$GPBWC,,,,,,,T,,M,,N,,N*74
$GPBWC,,,,,,,T,,M,,N,,N*74
$GPBWC,,,,,,,T,,M,,N,,N*74
$GPBWC,,,,,,,T,,M,,N,,N*74
$GPBWC,,,,,,,T,,M,,N,,N*74
$GPBWC,,,,,,,T,,M,,N,,N*74
$GPBWC,,,,,,,T,,M,,N,,N*74
$GPBWC,,,,,,,T,,M,,N,,N*74
$GPBWC,,,,,,,T,,M,,N,,N*74
$GPBWC,,,,,,,T,,M,,N,,N*74
$GPBWC,,,,,,,T,,M,,N,,N*74
$GPBWC,,,,,,,T,,M,,N,,N*74
$GPBWC,,,,,,,T,,M,,N,,N*74
$GPBWC,,,,,,,T,,M,,N,,N*74
$GPBWC,,,,,,,T,,M,,N,,N*74
$GPBWC,,,,,,,T,,M,,N,,N*74
$GPBWC,,,,,,,T,,M,,N,,N*74
$GPBWC,,,,,,,T,,M,,N,,N*74
$GPBWC,,,,,,,T,,M,,N,,N*74
$GPBWC,,,,,,,T,,M,,N,,N*74
$GPBWC,,,,,,,T,,M,,N,,N*74
$GPBWC,,,,,,,T,,M,,N,,N*74
$GPBWC,,,,,,,T,,M,,N,,N*74
$GPGGA,030933.000,2805.8247,N,08227.8609,W,2,07,1.2,15.5,M,-29.9,M,5.0,0000*78
$GPGSV,3,1,12,26,71,174,33,14,53,078,15,31,52,018,23,22,47,284,34*77
$GPGSV,3,2,12,08,00,201,00,09,00,303,00,10,03,159,00,11,00,236,00*71
$GPRMC,030811.000,A,2805.8248,N,08227.8608,W,0.00,4.80,101017,,,D*78
$GPGGA,030926.000,2805.8247,N,08227.8609,W,2,07,1.2,15.5,M,-29.9,M,4.0,0000*7D
$HCHDM,137.7,M*2B
$GPRMC,030957.000,A,2805.8247,N,08227.8609,W,0.00,4.80,101017,,,D*75
$GPGGA,030950.000,2805.8247,N,08227.8609,W,2,07,1.2,15.5,M,-29.9,M,4.0,0000*7C
$GPRMC,030806.000,A,2805.8248,N,08227.8608,W,0.00,4.80,101017,,,D*7E
$GPGGA,030943.000,2805.8247,N,08227.8609,W,2,07,1.2,15.5,M,-29.9,M,3.0,0000*79
$GPGGA,030846.000,2805.8248,N,08227.8608,W,2,07,1.2,15.0,M,-29.9,M,2.0,0000*77
$GPRMC,030651.000,A,2805.8247,N,08227.8607,W,0.00,4.80,101017,,,D*72
$GPGGA,030640.000,2805.8244,N,08227.8608,W,2,07,1.2,14.6,M,-29.9,M,2.0,0000*74
$GPGSV,3,1,12,26,71,174,32,14,53,078,20,31,52,018,23,22,47,284,33*77
$GPGSV,3,3,12,29,08,064,,10,06,159,,01,05,255,,23,05,307,*77
$GPRMC,030956.000,A,2805.8247,N,08227.8609,W,0.00,4.80,101017,,,D*74
$GPGGA,030751.000,2805.8248,N,08227.8608,W,2,07,1.2,14.7,M,-29.9,M,2.0,0000*78
$GPGGA,030817.000,2805.8248,N,08227.8608,W,2,07,1.2,14.8,M,-29.9,M,2.0,0000*7A
$GPRMC,030824.000,A,2805.8248,N,08227.8608,W,0.00,4.80,101017,,,D*7E
$GPRMC,030807.000,A,2805.8248,N,08227.8608,W,0.00,4.80,101017,,,D*7F
$GPRMC,030928.000,A,2805.8247,N,08227.8609,W,0.00,4.80,101017,,,D*7D
$GPRMC,030836.000,A,2805.8248,N,08227.8608,W,0.00,4.80,101017,,,D*7D
$GPGGA,030715.000,2805.8247,N,08227.8608,W,2,07,1.2,14.7,M,-29.9,M,4.0,0000*71
$GPRMC,030646.000,A,2805.8247,N,08227.8607,W,0.00,4.80,101017,,,D*74
$GPGSV,3,1,12,26,71,174,35,14,53,078,20,31,52,018,26,22,47,284,28*7F
$GPGSV,3,2,12,25,02,036,00,26,76,170,00,27,02,175,00,28,00,230,00*77
$GPGSV,3,2,12,25,02,036,00,26,76,170,00,27,02,175,00,28,00,230,00*77
$GPGGA,030800.000,2805.8248,N,08227.8608,W,2,07,1.2,14.7,M,-29.9,M,2.0,0000*73
$GPGGA,030836.000,2805.8248,N,08227.8608,W,2,07,1.2,14.9,M,-29.9,M,2.0,0000*78
$HCHDM,065.5,M*2F
$GPGSV,3,1,12,26,71,174,33,14,53,077,25,31,52,017,20,22,47,285,35*77
$GPGSA,M,3,26,14,31,22,16,32,03,,,,,,3.4,1.2,3.2*3D
$GPGGA,030743.000,2805.8247,N,08227.8608,W,2,07,1.2,14.7,M,-29.9,M,3.0,0000*75
$GPGGA,030718.000,2805.8247,N,08227.8608,W,2,07,1.2,14.7,M,-29.9,M,2.0,0000*7A
$HCHDM,101.1,M*28
$GPGSV,3,1,12,01,04,252,00,02,00,016,00,03,35,305,00,16,46,197,00*74
$GPRMC,030715.000,A,2805.8247,N,08227.8608,W,0.00,4.80,101017,,,D*7C
$GPGSV,3,1,12,26,72,173,28,14,52,079,18,31,52,018,18,22,47,284,34*7C
$GPGGA,030658.000,2805.8247,N,08227.8607,W,2,07,1.2,14.8,M,-29.9,M,2.0,0000*7F
$GPRMC,031010.000,A,2805.8247,N,08227.8609,W,0.00,4.80,101017,,,D*7E
$GPGSV,3,3,12,16,46,197,00,22,49,278,43,25,01,036,00,26,77,168,00*7F
$GPGSV,3,3,12,16,46,197,00,22,49,278,43,25,01,036,00,26,77,168,00*7F
$GPGSV,3,3,12,16,46,197,00,22,49,278,43,25,01,036,00,26,77,168,00*7F
$GPGSV,3,3,12,16,46,197,00,22,49,278,43,25,01,036,00,26,77,168,00*7F
$GPGSV,3,3,12,16,46,197,00,22,49,278,43,25,01,036,00,26,77,168,00*7F
$GPGSV,3,3,12,16,46,197,00,22,49,278,43,25,01,036,00,26,77,168,00*7F
$GPGSV,3,3,12,16,46,197,00,22,49,278,43,25,01,036,00,26,77,168,00*7F
$GPGSV,3,3,12,16,46,197,00,22,49,278,43,25,01,036,00,26,77,168,00*7F
$GPGSV,3,3,12,16,46,197,00,22,49,278,43,25,01,036,00,26,77,168,00*7F
$HCHDM,120.5,M*2F
$GPGSV,3,3,12,10,06,159,16,51,47,224,41,29,08,065,,01,06,255,*74
$GPRMC,031003.000,A,2805.8247,N,08227.8609,W,0.00,4.80,101017,,,D*7C
$GPGGA,030643.000,2805.8244,N,08227.8608,W,2,07,1.2,14.7,M,-29.9,M,3.0,0000*77
$HCHDM,108.9,M*29
$GPRMC,030833.000,A,2805.8248,N,08227.8608,W,0.00,4.80,101017,,,D*78
$GPRMC,030939.000,A,2805.8247,N,08227.8609,W,0.00,4.80,101017,,,D*7D
$GPRMC,030748.000,A,2805.8248,N,08227.8608,W,0.00,4.80,101017,,,D*7B
$GPGGA,030845.000,2805.8248,N,08227.8608,W,2,07,1.2,15.0,M,-29.9,M,3.0,0000*75
$GPRMC,030736.000,A,2805.8247,N,08227.8608,W,0.00,4.80,101017,,,D*7D
$GPGGA,030807.000,2805.8248,N,08227.8608,W,2,07,1.2,14.7,M,-29.9,M,3.0,0000*75
$GPGSV,3,1,12,26,70,174,34,14,53,077,29,31,52,017,28,22,47,285,37*77
$GPGGA,030920.000,2805.8247,N,08227.8609,W,2,07,1.2,15.5,M,-29.9,M,3.0,0000*7C
$GPRMC,030650.000,A,2805.8247,N,08227.8607,W,0.00,4.80,101017,,,D*73
$HCHDM,070.8,M*26
$HCHDM,077.6,M*2F
$GPRMC,030914.000,A,2805.8247,N,08227.8609,W,0.14,4.80,101017,,,D*77
$GPGGA,030719.000,2805.8247,N,08227.8608,W,2,07,1.2,14.7,M,-29.9,M,3.0,0000*7A
$GPRMC,030924.000,A,2805.8247,N,08227.8609,W,0.00,4.80,101017,,,D*71
$GPGGA,030806.000,2805.8248,N,08227.8608,W,2,07,1.2,14.7,M,-29.9,M,2.0,0000*75
$GPGGA,030901.000,2805.8248,N,08227.8608,W,2,07,1.2,15.0,M,-29.9,M,3.0,0000*74
$GPGGA,030930.000,2805.8247,N,08227.8609,W,2,07,1.2,15.5,M,-29.9,M,2.0,0000*7C
$HCHDM,062.9,M*24
$GPRMC,030933.000,A,2805.8247,N,08227.8609,W,0.00,4.80,101017,,,D*77
$GPRMC,030645.000,A,2805.8247,N,08227.8607,W,0.00,4.80,101017,,,D*77
$GPRMC,030902.000,A,2805.8248,N,08227.8608,W,0.00,4.80,101017,,,D*7B
$GPGSV,3,1,12,26,70,174,34,14,53,077,28,31,52,017,24,22,47,285,36*7B
$GPGGA,030827.000,2805.8248,N,08227.8608,W,2,07,1.2,14.9,M,-29.9,M,4.0,0000*7E
$GPGGA,031008.000,2805.8247,N,08227.8609,W,2,06,1.4,15.6,M,-29.9,M,4.0,0000*7D
$GPGGA,030656.000,2805.8247,N,08227.8607,W,2,07,1.2,14.8,M,-29.9,M,4.0,0000*77
$GPRMC,030654.000,A,2805.8247,N,08227.8607,W,0.00,4.80,101017,,,D*77
$GPGSV,3,2,12,16,41,195,33,32,39,100,18,03,32,307,14,51,47,224,42*71
$GPRMC,030729.000,A,2805.8247,N,08227.8608,W,0.00,4.80,101017,,,D*73
$GPGGA,030704.000,2805.8247,N,08227.8608,W,2,07,1.2,14.8,M,-29.9,M,2.0,0000*78
$GPGGA,030903.000,2805.8248,N,08227.8608,W,2,07,1.2,15.0,M,-29.9,M,5.0,0000*70
$GPGSV,3,2,12,32,40,099,23,16,39,195,35,03,32,308,30,25,05,036,15*70
$GPRMC,030936.000,A,2805.8247,N,08227.8609,W,0.00,4.80,101017,,,D*72
$GPWPL,2752.8300,N,08226.6800,W,DI C*3E
$GPWPL,2752.8300,N,08226.6800,W,DI C*3E
$GPWPL,2752.8300,N,08226.6800,W,DI C*3E
$GPWPL,2752.8300,N,08226.6800,W,DI C*3E
$GPWPL,2752.8300,N,08226.6800,W,DI C*3E
$GPWPL,2752.8300,N,08226.6800,W,DI C*3E
$GPWPL,2752.8300,N,08226.6800,W,DI C*3E
$GPWPL,2752.8300,N,08226.6800,W,DI C*3E
$GPWPL,2752.8300,N,08226.6800,W,DI C*3E
$GPWPL,2752.8300,N,08226.6800,W,DI C*3E
$HCHDM,120.9,M*23
$GPGGA,030925.000,2805.8247,N,08227.8609,W,2,07,1.2,15.5,M,-29.9,M,3.0,0000*79
$HCHDM,119.6,M*26
$GPGGA,030705.000,2805.8247,N,08227.8608,W,2,07,1.2,14.7,M,-29.9,M,2.0,0000*76
$HCHDM,121.9,M*22
$GPGGA,030802.000,2805.8248,N,08227.8608,W,2,07,1.2,14.7,M,-29.9,M,4.0,0000*77
$GPGGA,030932.000,2805.8247,N,08227.8609,W,2,07,1.2,15.5,M,-29.9,M,4.0,0000*78
$GPGSV,3,1,12,26,71,174,36,14,53,077,20,31,52,018,25,22,47,285,29*70
$GPWPL,2754.4967,N,08227.1753,W,DI-BASIN*29
$GPWPL,2754.4967,N,08227.1753,W,DI-BASIN*29
$GPWPL,2754.4967,N,08227.1753,W,DI-BASIN*29
$GPWPL,2754.4967,N,08227.1753,W,DI-BASIN*29
$GPWPL,2754.4967,N,08227.1753,W,DI-BASIN*29
$GPWPL,2754.4967,N,08227.1753,W,DI-BASIN*29
$GPWPL,2754.4967,N,08227.1753,W,DI-BASIN*29
$GPWPL,2754.4967,N,08227.1753,W,DI-BASIN*29
$GPWPL,2754.4967,N,08227.1753,W,DI-BASIN*29
$GPWPL,2754.4967,N,08227.1753,W,DI-BASIN*29
$GPGSV,3,2,12,25,01,036,00,26,77,168,00,27,02,175,00,28,00,230,00*7C
$GPGSV,3,2,12,25,01,036,00,26,77,168,00,27,02,175,00,28,00,230,00*7C
$GPGGA,030812.000,2805.8248,N,08227.8608,W,2,07,1.2,14.8,M,-29.9,M,2.0,0000*7F
$GPGGA,030859.000,2805.8248,N,08227.8608,W,2,07,1.2,15.0,M,-29.9,M,2.0,0000*79
$HCHDM,063.0,M*2C
$GPRMC,030935.000,A,2805.8247,N,08227.8609,W,0.00,4.80,101017,,,D*71
$GPGGA,030746.000,2805.8248,N,08227.8608,W,2,07,1.2,14.7,M,-29.9,M,2.0,0000*7E
$GPGGA,030732.000,2805.8247,N,08227.8608,W,2,07,1.2,14.7,M,-29.9,M,4.0,0000*74
$HCHDM,117.5,M*2B
$GPRMC,030754.000,A,2805.8248,N,08227.8608,W,0.00,4.80,101017,,,D*76
$GPGSV,3,2,12,16,41,195,34,32,39,100,21,01,05,254,23,03,33,307,05*7E
$GPGGA,030726.000,2805.8247,N,08227.8608,W,2,07,1.2,14.7,M,-29.9,M,4.0,0000*71
$GPGSV,3,3,12,21,00,119,00,22,49,280,00,23,08,310,00,24,00,088,00*7A
$GPGSV,3,3,12,21,00,119,00,22,49,280,00,23,08,310,00,24,00,088,00*7A
$GPGSV,3,3,12,21,00,119,00,22,49,280,00,23,08,310,00,24,00,088,00*7A
$GPGSV,3,3,12,21,00,119,00,22,49,280,00,23,08,310,00,24,00,088,00*7A
$GPGSV,3,3,12,21,00,119,00,22,49,280,00,23,08,310,00,24,00,088,00*7A
$GPGSV,3,3,12,21,00,119,00,22,49,280,00,23,08,310,00,24,00,088,00*7A
$GPGSV,3,3,12,21,00,119,00,22,49,280,00,23,08,310,00,24,00,088,00*7A
$GPGSV,3,3,12,29,08,064,,10,06,159,,23,06,308,,01,05,254,*7A
$GPBOD,,T,,M,,*47
$GPBOD,,T,,M,,*47
$GPBOD,,T,,M,,*47
$GPBOD,,T,,M,,*47
$GPBOD,,T,,M,,*47
$GPBOD,,T,,M,,*47
$GPBOD,,T,,M,,*47
$GPBOD,,T,,M,,*47
$GPBOD,,T,,M,,*47
$GPBOD,,T,,M,,*47
$GPBOD,,T,,M,,*47
$GPBOD,,T,,M,,*47
$GPBOD,,T,,M,,*47
$GPBOD,,T,,M,,*47
$GPBOD,,T,,M,,*47
$GPBOD,,T,,M,,*47
$GPBOD,,T,,M,,*47
$GPBOD,,T,,M,,*47
$GPBOD,,T,,M,,*47
$GPBOD,,T,,M,,*47
$GPBOD,,T,,M,,*47
$GPBOD,,T,,M,,*47
$GPBOD,,T,,M,,*47
$GPBOD,,T,,M,,*47
$GPBOD,,T,,M,,*47
$GPBOD,,T,,M,,*47
$GPBOD,,T,,M,,*47
$GPBOD,,T,,M,,*47
$GPBOD,,T,,M,,*47
$GPBOD,,T,,M,,*47
$GPBOD,,T,,M,,*47
$GPBOD,,T,,M,,*47
$GPBOD,,T,,M,,*47
$GPBOD,,T,,M,,*47
$GPBOD,,T,,M,,*47
$GPBOD,,T,,M,,*47
$GPBOD,,T,,M,,*47
$GPBOD,,T,,M,,*47
$GPBOD,,T,,M,,*47
$GPBOD,,T,,M,,*47
$GPBOD,,T,,M,,*47
$GPBOD,,T,,M,,*47
$GPBOD,,T,,M,,*47
$GPBOD,,T,,M,,*47
$GPBOD,,T,,M,,*47
$GPBOD,,T,,M,,*47
$GPBOD,,T,,M,,*47
$GPBOD,,T,,M,,*47
$GPBOD,,T,,M,,*47
$GPBOD,,T,,M,,*47
$GPBOD,,T,,M,,*47
$GPBOD,,T,,M,,*47
$GPRMC,030943.000,A,2805.8247,N,08227.8609,W,0.00,4.80,101017,,,D*70
$GPRMC,030742.000,A,2805.8247,N,08227.8608,W,0.00,4.80,101017,,,D*7E
$GPRMC,030717.000,A,2805.8247,N,08227.8608,W,0.00,4.80,101017,,,D*7E
$GPGGA,030914.000,2805.8247,N,08227.8609,W,2,07,1.2,15.4,M,-29.9,M,3.0,0000*7A
$GPGGA,030917.000,2805.8247,N,08227.8609,W,2,07,1.2,15.4,M,-29.9,M,2.0,0000*78
$GPRMC,030915.000,A,2805.8247,N,08227.8609,W,0.00,4.80,101017,,,D*73
$GPGGA,030907.000,2805.8248,N,08227.8608,W,2,07,1.2,15.0,M,-29.9,M,3.0,0000*72
$GPRMC,030858.000,A,2805.8248,N,08227.8608,W,0.00,4.80,101017,,,D*75
$GPRMC,030641.000,A,2805.8244,N,08227.8608,W,0.00,4.80,101017,,,D*7F
$GPGGA,030649.000,2805.8247,N,08227.8607,W,2,08,1.1,14.8,M,-29.9,M,2.0,0000*73
$GPGSV,3,1,12,26,71,174,35,14,53,078,21,31,52,018,26,22,47,284,28*7E
$HCHDM,062.7,M*2A
$HCHDM,072.7,M*2B
$HCHDM,067.0,M*28
$HCHDM,136.3,M*2E
$GPGGA,030928.000,2805.8247,N,08227.8609,W,2,06,1.3,15.5,M,-29.9,M,2.0,0000*75
$GPGSV,3,2,12,32,39,100,25,03,32,307,25,14,53,078,10,51,47,224,39*73
$GPGGA,030915.000,2805.8247,N,08227.8609,W,2,07,1.2,15.4,M,-29.9,M,2.0,0000*7A
$GPGSV,3,3,12,10,07,159,18,51,47,224,41,29,08,065,,23,05,307,*7E
$GPGSV,3,2,12,32,40,099,25,16,40,195,35,03,32,308,29,01,06,255,19*7E
$GPRMC,030803.000,A,2805.8248,N,08227.8608,W,0.00,4.80,101017,,,D*7B
$GPGSV,3,2,12,16,41,195,34,32,39,100,12,03,32,307,15,51,47,224,44*7B
$GPRMC,030826.000,A,2805.8248,N,08227.8608,W,0.00,4.80,101017,,,D*7C
$GPGSV,3,2,12,16,41,195,34,32,39,100,19,03,33,307,08,01,05,254,23*78
$GPGSV,3,2,12,16,41,195,34,32,39,100,20,03,32,307,15,51,47,224,44*7A
$GPRMC,030842.000,A,2805.8248,N,08227.8608,W,0.00,4.80,101017,,,D*7E
$GPGSV,3,3,12,29,09,060,00,30,00,234,00,31,50,023,00,32,37,105,00*7F
$GPGSV,3,3,12,29,09,060,00,30,00,234,00,31,50,023,00,32,37,105,00*7F
$GPGSV,3,3,12,29,09,060,00,30,00,234,00,31,50,023,00,32,37,105,00*7F
$GPGSV,3,3,12,29,09,060,00,30,00,234,00,31,50,023,00,32,37,105,00*7F
$GPGGA,030641.000,2805.8244,N,08227.8608,W,2,07,1.2,14.6,M,-29.9,M,2.0,0000*75
$GPGSV,3,3,12,51,47,224,44,29,08,064,,10,06,159,,01,05,255,*74
$GPGGA,030944.000,2805.8247,N,08227.8609,W,2,07,1.2,15.5,M,-29.9,M,4.0,0000*79
$PGRMZ,,f,1*29
$PGRMZ,,f,1*29
$PGRMZ,,f,1*29
$PGRMZ,,f,1*29
$PGRMZ,,f,1*29
$PGRMZ,,f,1*29
$PGRMZ,,f,1*29
$PGRMZ,,f,1*29
$PGRMZ,,f,1*29
$PGRMZ,,f,1*29
$PGRMZ,,f,1*29
$PGRMZ,,f,1*29
$PGRMZ,,f,1*29
$PGRMZ,,f,1*29
$PGRMZ,,f,1*29
$PGRMZ,,f,1*29
$PGRMZ,,f,1*29
$PGRMZ,,f,1*29
$PGRMZ,,f,1*29
$PGRMZ,,f,1*29
$PGRMZ,,f,1*29
$PGRMZ,,f,1*29
$PGRMZ,,f,1*29
$PGRMZ,,f,1*29
$PGRMZ,,f,1*29
$PGRMZ,,f,1*29
$PGRMZ,,f,1*29
$PGRMZ,,f,1*29
$PGRMZ,,f,1*29
$PGRMZ,,f,1*29
$PGRMZ,,f,1*29
$PGRMZ,,f,1*29
$PGRMZ,,f,1*29
$PGRMZ,,f,1*29
$PGRMZ,,f,1*29
$PGRMZ,,f,1*29
$PGRMZ,,f,1*29
$PGRMZ,,f,1*29
$PGRMZ,,f,1*29
$PGRMZ,,f,1*29
$PGRMZ,,f,1*29
$PGRMZ,,f,1*29
$PGRMZ,,f,1*29
$PGRMZ,,f,1*29
$PGRMZ,,f,1*29
$PGRMZ,,f,1*29
$PGRMZ,,f,1*29
$PGRMZ,,f,1*29
$PGRMZ,,f,1*29
$GPRMC,030816.000,A,2805.8248,N,08227.8608,W,0.00,4.80,101017,,,D*7F
$HCHDM,063.8,M*24
$GPRMC,030927.000,A,2805.8247,N,08227.8609,W,0.00,4.80,101017,,,D*72
$GPGGA,030910.000,2805.8248,N,08227.8608,W,2,07,1.2,15.0,M,-29.9,M,2.0,0000*75
$GPGSV,3,3,12,51,47,224,41,29,08,065,,10,07,159,,23,05,307,*77
$GPRMC,030705.000,A,2805.8247,N,08227.8608,W,0.06,4.80,101017,,,D*7B
$GPRMC,030649.000,A,2805.8247,N,08227.8607,W,0.00,4.80,101017,,,D*7B
$GPRMC,030749.000,A,2805.8248,N,08227.8608,W,0.00,4.80,101017,,,D*7A
$GPGGA,030728.000,2805.8247,N,08227.8608,W,2,07,1.2,14.7,M,-29.9,M,2.0,0000*79
$HCHDM,062.8,M*25
$GPGGA,031010.000,2805.8247,N,08227.8609,W,2,06,1.4,15.6,M,-29.9,M,2.0,0000*72
$HCHDM,111.3,M*2B
$GPGGA,030826.000,2805.8248,N,08227.8608,W,2,07,1.2,14.9,M,-29.9,M,3.0,0000*78
$HCHDM,062.6,M*2B
$HCHDM,062.7,M*2A
$HCHDM,072.7,M*2B
$HCHDM,067.0,M*28
$HCHDM,062.6,M*2B
$HCHDM,062.6,M*2B
$HCHDM,062.7,M*2A
$HCHDM,072.7,M*2B
$HCHDM,067.0,M*28
$HCHDM,062.6,M*2B
$HCHDM,062.6,M*2B
$HCHDM,062.6,M*2B
$HCHDM,062.7,M*2A
$HCHDM,072.7,M*2B
$HCHDM,067.0,M*28
$HCHDM,062.6,M*2B
$GPRMC,030813.000,A,2805.8248,N,08227.8608,W,0.00,4.80,101017,,,D*7A
$GPRMC,030740.000,A,2805.8247,N,08227.8608,W,0.00,4.80,101017,,,D*7C
$GPRMC,030714.000,A,2805.8247,N,08227.8608,W,0.00,4.80,101017,,,D*7D
$HCHDM,090.9,M*29
$GPGGA,030924.000,2805.8247,N,08227.8609,W,2,07,1.2,15.5,M,-29.9,M,2.0,0000*79
$GPGGA,030754.000,2805.8248,N,08227.8608,W,2,07,1.2,14.7,M,-29.9,M,2.0,0000*7D
$HCHDM,063.2,M*2E
$GPGGA,030905.000,2805.8248,N,08227.8608,W,2,07,1.2,15.0,M,-29.9,M,2.0,0000*71
$GPGSV,3,1,12,26,70,174,33,14,53,077,26,31,52,017,24,22,47,285,35*71
$GPGSA,M,3,26,31,22,16,32,03,,,,,,,3.5,1.3,3.2*38
$GPGSV,3,2,12,09,00,304,00,10,02,159,00,11,00,236,00,12,00,029,00*74
$GPGSV,3,2,12,09,00,304,00,10,02,159,00,11,00,236,00,12,00,029,00*74
$GPGSV,3,2,12,09,00,304,00,10,02,159,00,11,00,236,00,12,00,029,00*74
$GPGSV,3,2,12,09,00,304,00,10,02,159,00,11,00,236,00,12,00,029,00*74
$GPGSV,3,2,12,09,00,304,00,10,02,159,00,11,00,236,00,12,00,029,00*74
$GPGSV,3,2,12,09,00,304,00,10,02,159,00,11,00,236,00,12,00,029,00*74
$GPRMC,030734.000,A,2805.8247,N,08227.8608,W,0.00,4.80,101017,,,D*7F
$GPGGA,030956.000,2805.8247,N,08227.8609,W,2,07,1.2,15.6,M,-29.9,M,2.0,0000*7F
$GPRMC,031008.000,A,2805.8247,N,08227.8609,W,0.00,4.80,101017,,,D*77
$GPGGA,030645.000,2805.8247,N,08227.8607,W,2,08,1.1,14.8,M,-29.9,M,5.0,0000*78
$GPRMC,030644.000,A,2805.8246,N,08227.8607,W,0.06,4.80,101017,,,D*71
$GPRMC,030712.000,A,2805.8247,N,08227.8608,W,0.00,4.80,101017,,,D*7B
$GPGGA,030931.000,2805.8247,N,08227.8609,W,2,07,1.2,15.5,M,-29.9,M,3.0,0000*7C
$GPRMC,030949.000,A,2805.8247,N,08227.8609,W,0.00,4.80,101017,,,D*7A
$GPRMC,030805.000,A,2805.8248,N,08227.8608,W,0.00,4.80,101017,,,D*7D
$GPGGA,030949.000,2805.8247,N,08227.8609,W,2,07,1.2,15.5,M,-29.9,M,3.0,0000*73
$GPGGA,030838.000,2805.8248,N,08227.8608,W,2,07,1.2,14.9,M,-29.9,M,2.0,0000*76
$GPRMC,030906.000,A,2805.8248,N,08227.8608,W,0.00,4.80,101017,,,D*7F
$GPGSV,3,1,12,26,71,174,28,14,53,078,20,31,52,018,25,22,47,284,33*7A
$GPRMC,030759.000,A,2805.8248,N,08227.8608,W,0.00,4.80,101017,,,D*7B
$HCHDM,132.1,M*28
$GPGSA,M,3,26,14,31,22,16,32,03,25,,,,,2.1,1.1,1.7*3A
$GPGGA,030941.000,2805.8247,N,08227.8609,W,2,07,1.2,15.5,M,-29.9,M,2.0,0000*7A
$GPGGA,030720.000,2805.8247,N,08227.8608,W,2,07,1.2,14.7,M,-29.9,M,4.0,0000*77
$GPGGA,030929.000,2805.8247,N,08227.8609,W,2,06,1.3,15.5,M,-29.9,M,2.0,0000*74
$GPRMC,030722.000,A,2805.8247,N,08227.8608,W,0.00,4.80,101017,,,D*78
$GPGGA,030857.000,2805.8248,N,08227.8608,W,2,07,1.2,15.0,M,-29.9,M,5.0,0000*70
$GPVTG,,T,,M,,N,,K,N*2C
$GPVTG,,T,,M,,N,,K,N*2C
$GPVTG,,T,,M,,N,,K,N*2C
$GPVTG,,T,,M,,N,,K,N*2C
$GPVTG,,T,,M,,N,,K,N*2C
$GPVTG,,T,,M,,N,,K,N*2C
$GPVTG,,T,,M,,N,,K,N*2C
$GPVTG,,T,,M,,N,,K,N*2C
$GPVTG,,T,,M,,N,,K,N*2C
$GPVTG,,T,,M,,N,,K,N*2C
$GPVTG,,T,,M,,N,,K,N*2C
$GPVTG,,T,,M,,N,,K,N*2C
$GPVTG,,T,,M,,N,,K,N*2C
$GPVTG,,T,,M,,N,,K,N*2C
$GPVTG,,T,,M,,N,,K,N*2C
$GPVTG,,T,,M,,N,,K,N*2C
$GPVTG,,T,,M,,N,,K,N*2C
$GPVTG,,T,,M,,N,,K,N*2C
$GPVTG,,T,,M,,N,,K,N*2C
$GPVTG,,T,,M,,N,,K,N*2C
$GPVTG,,T,,M,,N,,K,N*2C
$GPVTG,,T,,M,,N,,K,N*2C
$GPVTG,,T,,M,,N,,K,N*2C
$GPVTG,,T,,M,,N,,K,N*2C
$GPVTG,,T,,M,,N,,K,N*2C
$GPVTG,,T,,M,,N,,K,N*2C
$GPVTG,,T,,M,,N,,K,N*2C
$GPVTG,,T,,M,,N,,K,N*2C
$GPVTG,,T,,M,,N,,K,N*2C
$GPVTG,,T,,M,,N,,K,N*2C
$GPVTG,,T,,M,,N,,K,N*2C
$GPVTG,,T,,M,,N,,K,N*2C
$GPVTG,,T,,M,,N,,K,N*2C
$GPVTG,,T,,M,,N,,K,N*2C
$GPVTG,,T,,M,,N,,K,N*2C
$GPVTG,,T,,M,,N,,K,N*2C
$GPVTG,,T,,M,,N,,K,N*2C
$GPVTG,,T,,M,,N,,K,N*2C
$GPVTG,,T,,M,,N,,K,N*2C
$GPVTG,,T,,M,,N,,K,N*2C
$GPVTG,,T,,M,,N,,K,N*2C
$GPVTG,,T,,M,,N,,K,N*2C
$GPVTG,,T,,M,,N,,K,N*2C
$GPVTG,,T,,M,,N,,K,N*2C
$GPVTG,,T,,M,,N,,K,N*2C
$GPVTG,,T,,M,,N,,K,N*2C
$GPVTG,,T,,M,,N,,K,N*2C
$GPVTG,,T,,M,,N,,K,N*2C
$GPVTG,,T,,M,,N,,K,N*2C
$GPVTG,,T,,M,,N,,K,N*2C
$GPVTG,,T,,M,,N,,K,N*2C
$GPVTG,,T,,M,,N,,K,N*2C
$GPRMC,030825.000,A,2805.8248,N,08227.8608,W,0.00,4.80,101017,,,D*7F
$GPRMC,030856.000,A,2805.8248,N,08227.8608,W,0.00,4.80,101017,,,D*7B
$GPGGA,030843.000,2805.8248,N,08227.8608,W,2,07,1.2,15.0,M,-29.9,M,2.0,0000*72
$HCHDM,065.2,M*28
$GPGGA,030725.000,2805.8247,N,08227.8608,W,2,07,1.2,14.7,M,-29.9,M,3.0,0000*75
$HCHDM,121.3,M*28
$GPGGA,030650.000,2805.8247,N,08227.8607,W,2,08,1.1,14.8,M,-29.9,M,3.0,0000*7A
$HCHDM,124.2,M*2C
$GPGSV,3,2,12,32,40,099,26,16,40,195,35,03,32,308,29,01,06,255,19*7D
$GPRMC,030954.000,A,2805.8247,N,08227.8609,W,0.00,4.80,101017,,,D*76
$GPGSV,3,1,12,26,71,174,34,14,53,078,13,31,52,018,26,22,47,284,37*70
$GPRMC,030711.000,A,2805.8247,N,08227.8608,W,0.00,4.80,101017,,,D*78
$GPRMC,030820.000,A,2805.8248,N,08227.8608,W,0.00,4.80,101017,,,D*7A
$GPRMC,030900.000,A,2805.8248,N,08227.8608,W,0.00,4.80,101017,,,D*79
$GPGGA,030909.000,2805.8248,N,08227.8608,W,2,06,1.3,15.0,M,-29.9,M,5.0,0000*7A
$GPGSV,3,1,12,26,71,174,35,14,53,077,20,31,52,017,24,22,47,285,30*75
$GPRMC,030648.000,A,2805.8247,N,08227.8607,W,0.00,4.80,101017,,,D*7A
$GPGGA,030642.000,2805.8244,N,08227.8608,W,2,07,1.2,14.7,M,-29.9,M,2.0,0000*77
$GPRMC,030958.000,A,2805.8247,N,08227.8609,W,0.00,4.80,101017,,,D*7A
$GPGSV,3,1,12,01,04,253,00,02,00,016,00,16,46,197,00,22,49,278,41*73
$GPGSV,3,1,12,01,04,253,00,02,00,016,00,16,46,197,00,22,49,278,41*73
$GPGSV,3,1,12,01,04,253,00,02,00,016,00,16,46,197,00,22,49,278,41*73
$GPGSV,3,1,12,01,04,253,00,02,00,016,00,16,46,197,00,22,49,278,41*73
$GPGSV,3,1,12,01,04,253,00,02,00,016,00,16,46,197,00,22,49,278,41*73
$GPGSV,3,1,12,01,04,253,00,02,00,016,00,16,46,197,00,22,49,278,41*73
$GPGSV,3,1,12,01,04,253,00,02,00,016,00,16,46,197,00,22,49,278,41*73
$GPGGA,030822.000,2805.8248,N,08227.8608,W,2,07,1.2,14.8,M,-29.9,M,2.0,0000*7C
$GPGSV,3,2,12,16,40,195,27,32,39,100,25,03,32,307,25,25,04,036,10*7B
$HCHDM,073.8,M*25
$GPGSV,3,1,12,26,71,174,36,14,53,077,21,31,52,018,25,22,47,285,30*79
$GPGSV,3,1,12,26,70,175,35,14,53,076,30,31,52,017,27,22,47,286,37*72
$GPGGA,031002.000,2805.8247,N,08227.8609,W,2,06,1.4,15.6,M,-29.9,M,3.0,0000*70
$GPGSV,3,1,12,26,71,174,34,14,53,077,20,31,52,017,22,22,47,285,34*76
$GPGSV,3,3,12,23,06,308,19,51,47,224,42,29,08,064,,10,06,159,*70
$GPRMC,030844.000,A,2805.8248,N,08227.8608,W,0.00,4.80,101017,,,D*78
