$HCHDM,134.7,M*28
$HCHDM,134.7,M*28
$HCHDM,134.6,M*29
$HCHDM,134.5,M*2A
$HCHDM,134.5,M*2A
$HCHDM,134.4,M*2B
$HCHDM,134.3,M*2C
$HCHDM,134.2,M*2D
$HCHDM,134.1,M*2E
$HCHDM,134.0,M*2F
$HCHDM,134.0,M*2F
$GPRMC,220620.000,A,2754.4915,N,08227.0183,W,0.15,0.00,030518,,,A*7B
$HCHDM,133.9,M*21
$HCHDM,133.8,M*20
$HCHDM,133.7,M*2F
$HCHDM,133.7,M*2F
$HCHDM,133.6,M*2E
$GPRMC,220621.000,A,2754.4915,N,08227.0183,W,0.01,0.00,030518,,,A*7F
$HCHDM,133.6,M*2E
$HCHDM,133.5,M*2D
$HCHDM,133.5,M*2D
$HCHDM,133.4,M*2C
$HCHDM,133.4,M*2C
$HCHDM,133.4,M*2C
$HCHDM,133.4,M*2C
$HCHDM,133.4,M*2C
$HCHDM,133.4,M*2C
$HCHDM,133.5,M*2D
$GPRMC,220622.000,A,2754.4917,N,08227.0184,W,0.09,0.00,030518,,,A*71
$HCHDM,133.5,M*2D
$HCHDM,133.5,M*2D
$HCHDM,133.6,M*2E
$HCHDM,133.6,M*2E
$HCHDM,133.6,M*2E
$HCHDM,133.7,M*2F
$HCHDM,133.7,M*2F
$HCHDM,133.7,M*2F
$HCHDM,133.7,M*2F
$HCHDM,133.8,M*20
$GPRMC,220623.000,A,2754.4917,N,08227.0184,W,0.01,0.00,030518,,,A*78
$HCHDM,133.8,M*20
$HCHDM,133.9,M*21
$HCHDM,133.9,M*21
$HCHDM,133.9,M*21
$HCHDM,133.9,M*21
$HCHDM,134.0,M*2F
$HCHDM,133.9,M*21
$HCHDM,133.9,M*21
$HCHDM,134.0,M*2F
$HCHDM,134.0,M*2F
$GPRMC,220624.000,A,2754.4917,N,08227.0184,W,0.00,0.00,030518,,,A*7E
$HCHDM,134.0,M*2F
$HCHDM,134.0,M*2F
$HCHDM,133.9,M*21
$HCHDM,133.9,M*21
$HCHDM,133.9,M*21
$HCHDM,133.9,M*21
$HCHDM,133.9,M*21
$HCHDM,133.9,M*21
$HCHDM,133.8,M*20
$HCHDM,133.8,M*20
$HCHDM,133.8,M*20
$HCHDM,133.7,M*2F
$HCHDM,133.7,M*2F
$HCHDM,133.7,M*2F
$HCHDM,133.7,M*2F
$GPRMC,220625.000,A,2754.4917,N,08227.0185,W,0.00,0.00,030518,,,A*7E
$HCHDM,133.7,M*2F
$HCHDM,133.7,M*2F
$HCHDM,133.7,M*2F
$HCHDM,133.7,M*2F
$HCHDM,133.7,M*2F
$GPRMC,220626.000,A,2754.4917,N,08227.0185,W,0.00,0.00,030518,,,A*7D
$HCHDM,133.7,M*2F
$HCHDM,133.7,M*2F
$HCHDM,133.7,M*2F
$HCHDM,133.7,M*2F
$HCHDM,133.7,M*2F
$HCHDM,133.7,M*2F
$HCHDM,133.8,M*20
$HCHDM,133.8,M*20
$HCHDM,133.8,M*20
$HCHDM,133.8,M*20
$GPRMC,220627.000,A,2754.4917,N,08227.0185,W,0.00,0.00,030518,,,A*7C
$HCHDM,133.8,M*20
$HCHDM,133.9,M*21
$HCHDM,133.9,M*21
$HCHDM,133.9,M*21
$HCHDM,133.9,M*21
$HCHDM,134.0,M*2F
$HCHDM,134.0,M*2F
$HCHDM,134.0,M*2F
$HCHDM,134.0,M*2F
$HCHDM,134.1,M*2E
$GPRMC,220628.000,A,2754.4917,N,08227.0185,W,0.00,0.00,030518,,,A*73
$HCHDM,134.1,M*2E
$HCHDM,134.1,M*2E
$HCHDM,134.1,M*2E
$HCHDM,134.2,M*2D
$HCHDM,134.2,M*2D
$HCHDM,134.2,M*2D
$HCHDM,134.2,M*2D
$HCHDM,134.2,M*2D
$HCHDM,134.2,M*2D
$HCHDM,134.2,M*2D
$GPRMC,220629.000,A,2754.4917,N,08227.0185,W,0.00,0.00,030518,,,A*72
$HCHDM,134.2,M*2D
$HCHDM,134.2,M*2D
$HCHDM,134.2,M*2D
$HCHDM,134.2,M*2D
$HCHDM,134.2,M*2D
$HCHDM,134.2,M*2D
$HCHDM,134.2,M*2D
$HCHDM,134.2,M*2D
$HCHDM,134.2,M*2D
$HCHDM,134.2,M*2D
$HCHDM,134.2,M*2D
$HCHDM,134.2,M*2D
$HCHDM,134.2,M*2D
$HCHDM,134.2,M*2D
$HCHDM,134.2,M*2D
$GPRMC,220630.000,A,2754.4917,N,08227.0185,W,0.00,0.00,030518,,,A*7A
$HCHDM,134.2,M*2D
$HCHDM,134.2,M*2D
$HCHDM,134.2,M*2D
$HCHDM,134.2,M*2D
$HCHDM,134.2,M*2D
$HCHDM,134.2,M*2D
$GPRMC,220631.000,A,2754.4917,N,08227.0185,W,0.00,0.00,030518,,,A*7B
$HCHDM,134.2,M*2D
$HCHDM,134.2,M*2D
$HCHDM,134.2,M*2D
$HCHDM,134.3,M*2C
$HCHDM,134.2,M*2D
$HCHDM,134.2,M*2D
$HCHDM,134.2,M*2D
$HCHDM,134.2,M*2D
$HCHDM,134.2,M*2D
$GPRMC,220632.000,A,2754.4917,N,08227.0185,W,0.00,0.00,030518,,,A*78
$HCHDM,134.2,M*2D
$HCHDM,134.1,M*2E
$HCHDM,134.1,M*2E
$HCHDM,134.1,M*2E
$HCHDM,134.1,M*2E
$HCHDM,134.0,M*2F
$HCHDM,134.0,M*2F
$HCHDM,134.0,M*2F
$HCHDM,134.0,M*2F
$HCHDM,134.0,M*2F
$GPRMC,220633.000,A,2754.4917,N,08227.0185,W,0.00,0.00,030518,,,A*79
$HCHDM,134.0,M*2F
$HCHDM,134.0,M*2F
$HCHDM,134.0,M*2F
$HCHDM,134.0,M*2F
$HCHDM,134.0,M*2F
$HCHDM,134.0,M*2F
$HCHDM,134.0,M*2F
$HCHDM,134.0,M*2F
$HCHDM,134.0,M*2F
$HCHDM,134.1,M*2E
$GPRMC,220634.000,A,2754.4917,N,08227.0185,W,0.00,0.00,030518,,,A*7E
$HCHDM,134.1,M*2E
$HCHDM,134.1,M*2E
$HCHDM,134.1,M*2E
$HCHDM,134.1,M*2E
$HCHDM,134.1,M*2E
$HCHDM,134.2,M*2D
$HCHDM,134.2,M*2D
$HCHDM,134.2,M*2D
$HCHDM,134.2,M*2D
$HCHDM,134.2,M*2D
$HCHDM,134.2,M*2D
$HCHDM,134.2,M*2D
$HCHDM,134.1,M*2E
$HCHDM,134.1,M*2E
$HCHDM,134.0,M*2F
$GPRMC,220635.000,A,2754.4917,N,08227.0185,W,0.00,0.00,030518,,,A*7F
$HCHDM,134.0,M*2F
$HCHDM,133.9,M*21
$HCHDM,133.9,M*21
$HCHDM,133.8,M*20
$HCHDM,133.7,M*2F
$GPRMC,220636.000,A,2754.4917,N,08227.0185,W,0.00,0.00,030518,,,A*7C
$HCHDM,133.6,M*2E
$HCHDM,133.5,M*2D
$HCHDM,133.4,M*2C
$HCHDM,133.3,M*2B
$HCHDM,133.2,M*2A
$HCHDM,133.1,M*29
$HCHDM,133.0,M*28
$HCHDM,132.9,M*20
$HCHDM,132.8,M*21
$HCHDM,132.7,M*2E
$GPRMC,220637.000,A,2754.4917,N,08227.0185,W,0.00,0.00,030518,,,A*7D
$HCHDM,132.7,M*2E
$HCHDM,132.6,M*2F
$HCHDM,132.5,M*2C
$HCHDM,132.5,M*2C
$HCHDM,132.4,M*2D
$HCHDM,132.4,M*2D
$HCHDM,132.4,M*2D
$HCHDM,132.4,M*2D
$HCHDM,132.4,M*2D
$HCHDM,132.4,M*2D
$GPRMC,220638.000,A,2754.4917,N,08227.0185,W,0.00,0.00,030518,,,A*72
$HCHDM,132.4,M*2D
$HCHDM,132.5,M*2C
$HCHDM,132.5,M*2C
$HCHDM,132.6,M*2F
$HCHDM,132.6,M*2F
$HCHDM,132.6,M*2F
$HCHDM,132.7,M*2E
$HCHDM,132.7,M*2E
$HCHDM,132.7,M*2E
$HCHDM,132.7,M*2E
$GPRMC,220639.000,A,2754.4917,N,08227.0184,W,0.00,0.00,030518,,,A*72
$HCHDM,132.8,M*21
$HCHDM,132.8,M*21
$HCHDM,132.8,M*21
$HCHDM,132.8,M*21
$HCHDM,132.8,M*21
$HCHDM,132.8,M*21
$HCHDM,132.8,M*21
$HCHDM,132.8,M*21
$HCHDM,132.9,M*20
$HCHDM,132.9,M*20
$HCHDM,132.9,M*20
$HCHDM,132.9,M*20
$HCHDM,132.9,M*20
$HCHDM,132.9,M*20
$HCHDM,132.9,M*20
$GPRMC,220640.000,A,2754.4917,N,08227.0184,W,0.00,0.00,030518,,,A*7C
$HCHDM,132.9,M*20
$HCHDM,132.9,M*20
$HCHDM,132.9,M*20
$HCHDM,132.9,M*20
$HCHDM,133.0,M*28
$GPRMC,220641.000,A,2754.4917,N,08227.0184,W,0.00,0.00,030518,,,A*7D
$HCHDM,132.9,M*20
$HCHDM,133.0,M*28
$HCHDM,133.0,M*28
$HCHDM,133.0,M*28
$HCHDM,133.0,M*28
$HCHDM,133.0,M*28
$HCHDM,133.0,M*28
$HCHDM,133.0,M*28
$HCHDM,133.0,M*28
$HCHDM,133.1,M*29
$GPRMC,220642.000,A,2754.4917,N,08227.0184,W,0.00,0.00,030518,,,A*7E
$HCHDM,133.1,M*29
$HCHDM,133.1,M*29
$HCHDM,133.1,M*29
$HCHDM,133.1,M*29
$HCHDM,133.1,M*29
$HCHDM,133.1,M*29
$HCHDM,133.1,M*29
$HCHDM,133.2,M*2A
$HCHDM,133.2,M*2A
$HCHDM,133.2,M*2A
$GPRMC,220643.000,A,2754.4917,N,08227.0184,W,0.00,0.00,030518,,,A*7F
$HCHDM,133.2,M*2A
$HCHDM,133.2,M*2A
$HCHDM,133.2,M*2A
$HCHDM,133.1,M*29
$HCHDM,133.1,M*29
$HCHDM,133.1,M*29
$HCHDM,133.1,M*29
$HCHDM,133.1,M*29
$HCHDM,133.1,M*29
$HCHDM,133.1,M*29
$GPRMC,220644.000,A,2754.4917,N,08227.0184,W,0.00,0.00,030518,,,A*78
$HCHDM,133.0,M*28
$HCHDM,133.0,M*28
$HCHDM,133.0,M*28
$HCHDM,133.0,M*28
$HCHDM,133.0,M*28
$HCHDM,133.0,M*28
$HCHDM,133.0,M*28
$HCHDM,133.0,M*28
$HCHDM,133.0,M*28
$HCHDM,133.1,M*29
$HCHDM,133.1,M*29
$HCHDM,133.2,M*2A
$HCHDM,133.2,M*2A
$HCHDM,133.3,M*2B
$HCHDM,133.3,M*2B
$GPRMC,220645.000,A,2754.4917,N,08227.0184,W,0.00,0.00,030518,,,A*79
$HCHDM,133.4,M*2C
$HCHDM,133.5,M*2D
$HCHDM,133.5,M*2D
$HCHDM,133.5,M*2D
$HCHDM,133.6,M*2E
$HCHDM,133.7,M*2F
$GPRMC,220646.000,A,2754.4917,N,08227.0184,W,0.00,0.00,030518,,,A*7A
$HCHDM,133.7,M*2F
$HCHDM,133.7,M*2F
$HCHDM,133.8,M*20
$HCHDM,133.8,M*20
$HCHDM,133.8,M*20
$HCHDM,133.8,M*20
$HCHDM,133.9,M*21
$HCHDM,133.9,M*21
$HCHDM,133.9,M*21
$HCHDM,133.9,M*21
$GPRMC,220647.000,A,2754.4917,N,08227.0184,W,0.00,0.00,030518,,,A*7B
$HCHDM,133.9,M*21
$HCHDM,133.9,M*21
$HCHDM,133.9,M*21
$HCHDM,133.9,M*21
$HCHDM,133.9,M*21
$HCHDM,133.9,M*21
$HCHDM,133.9,M*21
$HCHDM,133.9,M*21
$HCHDM,133.9,M*21
$HCHDM,133.9,M*21
$GPRMC,220648.000,A,2754.4917,N,08227.0184,W,0.00,0.00,030518,,,A*74
$HCHDM,133.8,M*20
$HCHDM,133.8,M*20
$HCHDM,133.8,M*20
$HCHDM,133.8,M*20
$HCHDM,133.8,M*20
$HCHDM,133.7,M*2F
$HCHDM,133.7,M*2F
$HCHDM,133.7,M*2F
$HCHDM,133.6,M*2E
$HCHDM,133.6,M*2E
$GPRMC,220649.000,A,2754.4917,N,08227.0184,W,0.00,0.00,030518,,,A*75
$HCHDM,133.6,M*2E
$HCHDM,133.6,M*2E
$HCHDM,133.6,M*2E
$HCHDM,133.5,M*2D
$HCHDM,133.5,M*2D
$HCHDM,133.5,M*2D
$HCHDM,133.5,M*2D
$HCHDM,133.5,M*2D
$HCHDM,133.5,M*2D
$HCHDM,133.5,M*2D
$HCHDM,133.5,M*2D
$HCHDM,133.5,M*2D
$HCHDM,133.5,M*2D
$HCHDM,133.5,M*2D
$GPRMC,220650.000,A,2754.4917,N,08227.0184,W,0.00,0.00,030518,,,A*7D
$HCHDM,133.6,M*2E
$HCHDM,133.6,M*2E
$HCHDM,133.6,M*2E
$HCHDM,133.7,M*2F
$HCHDM,133.7,M*2F
$GPRMC,220651.000,A,2754.4917,N,08227.0184,W,0.00,0.00,030518,,,A*7C
$HCHDM,133.8,M*20
$HCHDM,133.8,M*20
$HCHDM,133.8,M*20
$HCHDM,133.9,M*21
$HCHDM,133.9,M*21
$HCHDM,134.0,M*2F
$HCHDM,134.0,M*2F
$HCHDM,134.0,M*2F
$HCHDM,134.0,M*2F
$HCHDM,134.1,M*2E
$GPRMC,220652.000,A,2754.4917,N,08227.0184,W,0.00,0.00,030518,,,A*7F
$HCHDM,134.1,M*2E
$HCHDM,134.1,M*2E
$HCHDM,134.1,M*2E
$HCHDM,134.1,M*2E
$HCHDM,134.1,M*2E
$HCHDM,134.1,M*2E
$HCHDM,134.1,M*2E
$HCHDM,134.1,M*2E
$HCHDM,134.1,M*2E
$HCHDM,134.1,M*2E
$GPRMC,220653.000,A,2754.4917,N,08227.0184,W,0.00,0.00,030518,,,A*7E
$HCHDM,134.0,M*2F
$HCHDM,134.0,M*2F
$HCHDM,134.0,M*2F
$HCHDM,134.0,M*2F
$HCHDM,134.0,M*2F
$HCHDM,134.0,M*2F
$HCHDM,133.9,M*21
$HCHDM,134.0,M*2F
$HCHDM,133.9,M*21
$HCHDM,133.9,M*21
$GPRMC,220654.000,A,2754.4917,N,08227.0184,W,0.00,0.00,030518,,,A*79
$HCHDM,133.9,M*21
$HCHDM,133.9,M*21
$HCHDM,133.9,M*21
$HCHDM,133.9,M*21
$HCHDM,134.0,M*2F
$HCHDM,134.0,M*2F
$HCHDM,134.0,M*2F
$HCHDM,134.0,M*2F
$HCHDM,134.0,M*2F
$HCHDM,134.1,M*2E
$HCHDM,134.1,M*2E
$HCHDM,134.1,M*2E
$HCHDM,134.1,M*2E
$HCHDM,134.1,M*2E
$HCHDM,134.1,M*2E
$GPRMC,220655.000,A,2754.4917,N,08227.0184,W,0.00,0.00,030518,,,A*78
$HCHDM,134.1,M*2E
$HCHDM,134.1,M*2E
$HCHDM,134.1,M*2E
$HCHDM,134.1,M*2E
$HCHDM,134.1,M*2E
$GPRMC,220656.000,A,2754.4917,N,08227.0184,W,0.00,0.00,030518,,,A*7B
$HCHDM,134.1,M*2E
$HCHDM,134.1,M*2E
$HCHDM,134.1,M*2E
$HCHDM,134.1,M*2E
$HCHDM,134.1,M*2E
$HCHDM,134.1,M*2E
$HCHDM,134.1,M*2E
$HCHDM,134.1,M*2E
$HCHDM,134.1,M*2E
$HCHDM,134.1,M*2E
$GPRMC,220657.000,A,2754.4917,N,08227.0184,W,0.00,0.00,030518,,,A*7A
$HCHDM,134.1,M*2E
$HCHDM,134.1,M*2E
$HCHDM,134.1,M*2E
$HCHDM,134.1,M*2E
$HCHDM,134.1,M*2E
$HCHDM,134.2,M*2D
$HCHDM,134.2,M*2D
$HCHDM,134.2,M*2D
$HCHDM,134.2,M*2D
$HCHDM,134.2,M*2D
$GPRMC,220658.000,A,2754.4917,N,08227.0184,W,0.00,0.00,030518,,,A*75
$HCHDM,134.2,M*2D
$HCHDM,134.2,M*2D
$HCHDM,134.2,M*2D
$HCHDM,134.3,M*2C
$HCHDM,134.3,M*2C
$HCHDM,134.3,M*2C
$HCHDM,134.3,M*2C
$HCHDM,134.3,M*2C
$HCHDM,134.4,M*2B
$HCHDM,134.4,M*2B
$GPRMC,220659.000,A,2754.4917,N,08227.0184,W,0.00,0.00,030518,,,A*74
$HCHDM,134.4,M*2B
$HCHDM,134.4,M*2B
$HCHDM,134.4,M*2B
$HCHDM,134.4,M*2B
$HCHDM,134.4,M*2B
$HCHDM,134.4,M*2B
$HCHDM,134.4,M*2B
$HCHDM,134.4,M*2B
$HCHDM,134.4,M*2B
$HCHDM,134.4,M*2B
$HCHDM,134.4,M*2B
$HCHDM,134.4,M*2B
$HCHDM,134.4,M*2B
$HCHDM,134.4,M*2B
$HCHDM,134.4,M*2B
$GPRMC,220700.000,A,2754.4917,N,08227.0184,W,0.00,0.00,030518,,,A*79
$HCHDM,134.4,M*2B
$HCHDM,134.4,M*2B
$HCHDM,134.4,M*2B
$HCHDM,134.4,M*2B
$HCHDM,134.4,M*2B
$GPRMC,220701.000,A,2754.4917,N,08227.0184,W,0.00,0.00,030518,,,A*78
$HCHDM,134.4,M*2B
$HCHDM,134.4,M*2B
$HCHDM,134.4,M*2B
$HCHDM,134.4,M*2B
$HCHDM,134.4,M*2B
$HCHDM,134.4,M*2B
$HCHDM,134.4,M*2B
$HCHDM,134.5,M*2A
$HCHDM,134.5,M*2A
$HCHDM,134.5,M*2A
$GPRMC,220702.000,A,2754.4917,N,08227.0184,W,0.00,0.00,030518,,,A*7B
$HCHDM,134.4,M*2B
$HCHDM,134.4,M*2B
$HCHDM,134.4,M*2B
$HCHDM,134.4,M*2B
$HCHDM,134.4,M*2B
$HCHDM,134.4,M*2B
$HCHDM,134.4,M*2B
$HCHDM,134.4,M*2B
$HCHDM,134.4,M*2B
$HCHDM,134.4,M*2B
$GPRMC,220703.000,A,2754.4917,N,08227.0184,W,0.00,0.00,030518,,,A*7A
$HCHDM,134.4,M*2B
$HCHDM,134.3,M*2C
$HCHDM,134.3,M*2C
$HCHDM,134.3,M*2C
$HCHDM,134.3,M*2C
$HCHDM,134.3,M*2C
$HCHDM,134.3,M*2C
$HCHDM,134.4,M*2B
$HCHDM,134.3,M*2C
$HCHDM,134.3,M*2C
$GPRMC,220704.000,A,2754.4918,N,08227.0184,W,0.00,0.00,030518,,,A*72
$HCHDM,134.3,M*2C
$HCHDM,134.3,M*2C
$HCHDM,134.3,M*2C
$HCHDM,134.3,M*2C
$HCHDM,134.3,M*2C
$HCHDM,134.2,M*2D
$HCHDM,134.2,M*2D
$HCHDM,134.1,M*2E
$HCHDM,134.1,M*2E
$HCHDM,134.1,M*2E
$HCHDM,134.0,M*2F
$HCHDM,133.9,M*21
$HCHDM,133.9,M*21
$HCHDM,133.8,M*20
$HCHDM,133.7,M*2F
$GPRMC,220705.000,A,2754.4918,N,08227.0184,W,0.00,0.00,030518,,,A*73
$HCHDM,133.6,M*2E
$HCHDM,133.6,M*2E
$HCHDM,133.5,M*2D
$HCHDM,133.4,M*2C
$HCHDM,133.3,M*2B
$GPRMC,220706.000,A,2754.4918,N,08227.0184,W,0.00,0.00,030518,,,A*70
$HCHDM,133.3,M*2B
$HCHDM,133.2,M*2A
$HCHDM,133.1,M*29
$HCHDM,133.1,M*29
$HCHDM,133.0,M*28
$HCHDM,132.9,M*20
$HCHDM,132.9,M*20
$HCHDM,132.8,M*21
$HCHDM,132.7,M*2E
$HCHDM,132.7,M*2E
$GPRMC,220707.000,A,2754.4918,N,08227.0184,W,0.00,0.00,030518,,,A*71
$HCHDM,132.7,M*2E
$HCHDM,132.6,M*2F
$HCHDM,132.6,M*2F
$HCHDM,132.6,M*2F
$HCHDM,132.6,M*2F
$HCHDM,132.6,M*2F
$HCHDM,132.6,M*2F
$HCHDM,132.6,M*2F
$HCHDM,132.6,M*2F
$HCHDM,132.5,M*2C
$GPRMC,220708.000,A,2754.4918,N,08227.0184,W,0.00,0.00,030518,,,A*7E
$HCHDM,132.5,M*2C
$HCHDM,132.6,M*2F
$HCHDM,132.6,M*2F
$HCHDM,132.6,M*2F
$HCHDM,132.6,M*2F
$HCHDM,132.6,M*2F
$HCHDM,132.6,M*2F
$HCHDM,132.5,M*2C
$HCHDM,132.5,M*2C
$HCHDM,132.5,M*2C
$GPRMC,220709.000,A,2754.4918,N,08227.0184,W,0.00,0.00,030518,,,A*7F
$HCHDM,132.5,M*2C
$HCHDM,132.4,M*2D
$HCHDM,132.4,M*2D
$HCHDM,132.3,M*2A
$HCHDM,132.3,M*2A
$HCHDM,132.3,M*2A
$HCHDM,132.3,M*2A
$HCHDM,132.3,M*2A
$HCHDM,132.2,M*2B
$HCHDM,132.2,M*2B
$HCHDM,132.3,M*2A
$HCHDM,132.2,M*2B
$HCHDM,132.3,M*2A
$HCHDM,132.3,M*2A
$HCHDM,132.3,M*2A
$GPRMC,220710.000,A,2754.4918,N,08227.0184,W,0.00,0.00,030518,,,A*77
$HCHDM,132.3,M*2A
$HCHDM,132.3,M*2A
$HCHDM,132.3,M*2A
$HCHDM,132.4,M*2D
$HCHDM,132.4,M*2D
$GPRMC,220711.000,A,2754.4918,N,08227.0184,W,0.00,0.00,030518,,,A*76
$HCHDM,132.4,M*2D
$HCHDM,132.4,M*2D
$HCHDM,132.4,M*2D
$HCHDM,132.4,M*2D
$HCHDM,132.4,M*2D
$HCHDM,132.4,M*2D
$HCHDM,132.4,M*2D
$HCHDM,132.4,M*2D
$HCHDM,132.4,M*2D
$HCHDM,132.5,M*2C
$GPRMC,220712.000,A,2754.4918,N,08227.0184,W,0.00,0.00,030518,,,A*75
$HCHDM,132.4,M*2D
$HCHDM,132.4,M*2D
$HCHDM,132.4,M*2D
$HCHDM,132.4,M*2D
$HCHDM,132.3,M*2A
$HCHDM,132.3,M*2A
$HCHDM,132.2,M*2B
$HCHDM,132.2,M*2B
$HCHDM,132.2,M*2B
$HCHDM,132.2,M*2B
$HCHDM,132.1,M*28
$GPRMC,220713.000,A,2754.4918,N,08227.0184,W,0.00,0.00,030518,,,A*74
$HCHDM,132.1,M*28
$HCHDM,132.1,M*28
$HCHDM,132.1,M*28
$HCHDM,132.1,M*28
$HCHDM,132.1,M*28
$HCHDM,132.2,M*2B
$HCHDM,132.2,M*2B
$HCHDM,132.2,M*2B
$HCHDM,132.2,M*2B
$GPRMC,220714.000,A,2754.4918,N,08227.0184,W,0.00,0.00,030518,,,A*73
$HCHDM,132.1,M*28
$HCHDM,132.1,M*28
$HCHDM,132.1,M*28
$HCHDM,132.1,M*28
$HCHDM,132.1,M*28
$HCHDM,132.0,M*29
$HCHDM,132.0,M*29
$HCHDM,132.0,M*29
$HCHDM,132.0,M*29
$HCHDM,132.0,M*29
$HCHDM,132.0,M*29
$HCHDM,132.0,M*29
$HCHDM,132.0,M*29
$HCHDM,132.1,M*28
$HCHDM,132.0,M*29
$GPRMC,220715.000,A,2754.4918,N,08227.0184,W,0.00,0.00,030518,,,A*72
$HCHDM,132.1,M*28
$HCHDM,132.1,M*28
$HCHDM,132.1,M*28
$HCHDM,132.1,M*28
$HCHDM,132.2,M*2B
$HCHDM,132.2,M*2B
$GPRMC,220716.000,A,2754.4918,N,08227.0184,W,0.00,0.00,030518,,,A*71
$HCHDM,132.2,M*2B
$HCHDM,132.2,M*2B
$HCHDM,132.2,M*2B
$HCHDM,132.2,M*2B
$HCHDM,132.2,M*2B
$HCHDM,132.2,M*2B
$HCHDM,132.3,M*2A
$HCHDM,132.3,M*2A
$HCHDM,132.3,M*2A
$HCHDM,132.4,M*2D
$GPRMC,220717.000,A,2754.4918,N,08227.0184,W,0.00,0.00,030518,,,A*70
$HCHDM,132.4,M*2D
$HCHDM,132.4,M*2D
$HCHDM,132.5,M*2C
$HCHDM,132.5,M*2C
$HCHDM,132.5,M*2C
$HCHDM,132.5,M*2C
$HCHDM,132.5,M*2C
$HCHDM,132.5,M*2C
$HCHDM,132.5,M*2C
$GPRMC,220718.000,A,2754.4918,N,08227.0184,W,0.00,0.00,030518,,,A*7F
$HCHDM,132.6,M*2F
$HCHDM,132.6,M*2F
$HCHDM,132.6,M*2F
$HCHDM,132.6,M*2F
$HCHDM,132.6,M*2F
$HCHDM,132.7,M*2E
$HCHDM,132.7,M*2E
$HCHDM,132.7,M*2E
$HCHDM,132.8,M*21
$HCHDM,132.8,M*21
$GPRMC,220719.000,A,2754.4918,N,08227.0184,W,0.00,0.00,030518,,,A*7E
$HCHDM,132.8,M*21
$HCHDM,132.9,M*20
$HCHDM,132.9,M*20
$HCHDM,133.0,M*28
$HCHDM,133.1,M*29
$HCHDM,133.1,M*29
$HCHDM,133.2,M*2A
$HCHDM,133.2,M*2A
$HCHDM,133.3,M*2B
$HCHDM,133.3,M*2B
$HCHDM,133.4,M*2C
$HCHDM,133.4,M*2C
$HCHDM,133.5,M*2D
$HCHDM,133.5,M*2D
$HCHDM,133.5,M*2D
$HCHDM,133.5,M*2D
$GPRMC,220720.000,A,2754.4918,N,08227.0184,W,0.00,0.00,030518,,,A*74
$HCHDM,133.6,M*2E
$HCHDM,133.6,M*2E
$HCHDM,133.6,M*2E
$HCHDM,133.6,M*2E
$GPRMC,220721.000,A,2754.4918,N,08227.0184,W,0.00,0.00,030518,,,A*75
$HCHDM,133.6,M*2E
$HCHDM,133.6,M*2E
$HCHDM,133.6,M*2E
$HCHDM,133.6,M*2E
$HCHDM,133.6,M*2E
$HCHDM,133.5,M*2D
$HCHDM,133.5,M*2D
$HCHDM,133.5,M*2D
$HCHDM,133.5,M*2D
$HCHDM,133.5,M*2D
$HCHDM,133.5,M*2D
$GPRMC,220722.000,A,2754.4918,N,08227.0184,W,0.00,0.00,030518,,,A*76
$HCHDM,133.5,M*2D
$HCHDM,133.5,M*2D
$HCHDM,133.5,M*2D
$HCHDM,133.5,M*2D
$HCHDM,133.5,M*2D
$HCHDM,133.5,M*2D
$HCHDM,133.5,M*2D
$HCHDM,133.6,M*2E
$HCHDM,133.6,M*2E
$HCHDM,133.6,M*2E
$GPRMC,220723.000,A,2754.4918,N,08227.0184,W,0.00,0.00,030518,,,A*77
$HCHDM,133.6,M*2E
$HCHDM,133.6,M*2E
$HCHDM,133.6,M*2E
$HCHDM,133.6,M*2E
$HCHDM,133.6,M*2E
$HCHDM,133.6,M*2E
$HCHDM,133.6,M*2E
$HCHDM,133.6,M*2E
$HCHDM,133.6,M*2E
$HCHDM,133.6,M*2E
$GPRMC,220724.000,A,2754.4918,N,08227.0184,W,0.00,0.00,030518,,,A*70
$HCHDM,133.6,M*2E
$HCHDM,133.6,M*2E
$HCHDM,133.6,M*2E
$HCHDM,133.6,M*2E
$HCHDM,133.6,M*2E
$HCHDM,133.6,M*2E
$HCHDM,133.7,M*2F
$HCHDM,133.7,M*2F
$HCHDM,133.7,M*2F
$HCHDM,133.7,M*2F
$HCHDM,133.7,M*2F
$HCHDM,133.7,M*2F
$HCHDM,133.7,M*2F
$HCHDM,133.7,M*2F
$HCHDM,133.8,M*20
$GPRMC,220725.000,A,2754.4918,N,08227.0184,W,0.00,0.00,030518,,,A*71
$HCHDM,133.8,M*20
$HCHDM,133.8,M*20
$HCHDM,133.8,M*20
$HCHDM,133.8,M*20
$HCHDM,133.8,M*20
$GPRMC,220726.000,A,2754.4918,N,08227.0184,W,0.00,0.00,030518,,,A*72
$HCHDM,133.9,M*21
$HCHDM,133.9,M*21
$HCHDM,133.9,M*21
$HCHDM,133.9,M*21
$HCHDM,133.9,M*21
$HCHDM,134.0,M*2F
$HCHDM,134.0,M*2F
$HCHDM,133.9,M*21
$HCHDM,133.9,M*21
$HCHDM,133.9,M*21
$GPRMC,220727.000,A,2754.4918,N,08227.0184,W,0.00,0.00,030518,,,A*73
$HCHDM,133.9,M*21
$HCHDM,134.0,M*2F
$HCHDM,134.0,M*2F
$HCHDM,133.9,M*21
$HCHDM,133.9,M*21
$HCHDM,133.9,M*21
$HCHDM,133.9,M*21
$HCHDM,133.9,M*21
$HCHDM,133.9,M*21
$HCHDM,133.9,M*21
$GPRMC,220728.000,A,2754.4918,N,08227.0184,W,0.00,0.00,030518,,,A*7C
$HCHDM,133.9,M*21
$HCHDM,133.9,M*21
$HCHDM,133.8,M*20
$HCHDM,133.8,M*20
$HCHDM,133.8,M*20
$HCHDM,133.8,M*20
$HCHDM,133.8,M*20
$HCHDM,133.7,M*2F
$HCHDM,133.7,M*2F
$HCHDM,133.7,M*2F
$GPRMC,220729.000,A,2754.4918,N,08227.0184,W,0.00,0.00,030518,,,A*7D
$HCHDM,133.7,M*2F
$HCHDM,133.7,M*2F
$HCHDM,133.6,M*2E
$HCHDM,133.6,M*2E
$HCHDM,133.6,M*2E
$HCHDM,133.6,M*2E
$HCHDM,133.5,M*2D
$HCHDM,133.5,M*2D
$HCHDM,133.5,M*2D
$HCHDM,133.5,M*2D
$HCHDM,133.5,M*2D
$HCHDM,133.5,M*2D
$HCHDM,133.5,M*2D
$HCHDM,133.5,M*2D
$HCHDM,133.5,M*2D
$GPRMC,220730.000,A,2754.4918,N,08227.0184,W,0.00,0.00,030518,,,A*75
$HCHDM,133.5,M*2D
$HCHDM,133.5,M*2D
$HCHDM,133.5,M*2D
$HCHDM,133.5,M*2D
$HCHDM,133.5,M*2D
$GPRMC,220731.000,A,2754.4918,N,08227.0184,W,0.00,0.00,030518,,,A*74
$HCHDM,133.5,M*2D
$HCHDM,133.5,M*2D
$HCHDM,133.5,M*2D
$HCHDM,133.5,M*2D
$HCHDM,133.6,M*2E
$HCHDM,133.5,M*2D
$HCHDM,133.6,M*2E
$HCHDM,133.6,M*2E
$HCHDM,133.6,M*2E
$HCHDM,133.6,M*2E
$GPRMC,220732.000,A,2754.4918,N,08227.0184,W,0.00,0.00,030518,,,A*77
$HCHDM,133.6,M*2E
$HCHDM,133.7,M*2F
$HCHDM,133.6,M*2E
$HCHDM,133.7,M*2F
$HCHDM,133.6,M*2E
$HCHDM,133.7,M*2F
$HCHDM,133.6,M*2E
$HCHDM,133.6,M*2E
$HCHDM,133.7,M*2F
$HCHDM,133.6,M*2E
$GPRMC,220733.000,A,2754.4918,N,08227.0184,W,0.00,0.00,030518,,,A*76
$HCHDM,133.6,M*2E
$HCHDM,133.6,M*2E
$HCHDM,133.6,M*2E
$HCHDM,133.6,M*2E
$HCHDM,133.6,M*2E
$HCHDM,133.6,M*2E
$HCHDM,133.6,M*2E
$HCHDM,133.6,M*2E
$HCHDM,133.6,M*2E
$HCHDM,133.6,M*2E
$GPRMC,220734.000,A,2754.4918,N,08227.0184,W,0.00,0.00,030518,,,A*71
$HCHDM,133.6,M*2E
$HCHDM,133.6,M*2E
$HCHDM,133.6,M*2E
$HCHDM,133.6,M*2E
$HCHDM,133.6,M*2E
$HCHDM,133.6,M*2E
$HCHDM,133.6,M*2E
$HCHDM,133.6,M*2E
$HCHDM,133.6,M*2E
$HCHDM,133.7,M*2F
$HCHDM,133.7,M*2F
$HCHDM,133.7,M*2F
$HCHDM,133.7,M*2F
$HCHDM,133.7,M*2F
$HCHDM,133.7,M*2F
$GPRMC,220735.000,A,2754.4918,N,08227.0184,W,0.00,0.00,030518,,,A*70
$HCHDM,133.8,M*20
$HCHDM,133.8,M*20
$HCHDM,133.8,M*20
$HCHDM,133.8,M*20
$HCHDM,133.8,M*20
$GPRMC,220736.000,A,2754.4918,N,08227.0184,W,0.00,0.00,030518,,,A*73
$HCHDM,133.9,M*21
$HCHDM,133.8,M*20
$HCHDM,133.8,M*20
$HCHDM,133.8,M*20
$HCHDM,133.8,M*20
$HCHDM,133.8,M*20
$HCHDM,133.8,M*20
$HCHDM,133.8,M*20
$HCHDM,133.8,M*20
$HCHDM,133.8,M*20
$GPRMC,220737.000,A,2754.4918,N,08227.0184,W,0.00,0.00,030518,,,A*72
$HCHDM,133.9,M*21
$HCHDM,133.9,M*21
$HCHDM,133.9,M*21
$HCHDM,134.0,M*2F
$HCHDM,134.0,M*2F
$HCHDM,134.0,M*2F
$HCHDM,134.1,M*2E
$HCHDM,134.1,M*2E
$HCHDM,134.2,M*2D
$HCHDM,134.2,M*2D
$GPRMC,220738.000,A,2754.4918,N,08227.0184,W,0.00,0.00,030518,,,A*7D
$HCHDM,134.3,M*2C
$HCHDM,134.4,M*2B
$HCHDM,134.5,M*2A
$HCHDM,134.5,M*2A
$HCHDM,134.6,M*29
$HCHDM,134.6,M*29
$HCHDM,134.7,M*28
$HCHDM,134.8,M*27
$HCHDM,134.9,M*26
$HCHDM,134.9,M*26
$GPRMC,220739.000,A,2754.4918,N,08227.0184,W,0.00,0.00,030518,,,A*7C
$HCHDM,135.0,M*2E
$HCHDM,135.0,M*2E
$HCHDM,135.1,M*2F
$HCHDM,135.1,M*2F
$HCHDM,135.1,M*2F
$HCHDM,135.2,M*2C
$HCHDM,135.2,M*2C
$HCHDM,135.2,M*2C
$HCHDM,135.2,M*2C
$HCHDM,135.2,M*2C
$HCHDM,135.2,M*2C
$HCHDM,135.2,M*2C
$HCHDM,135.1,M*2F
$HCHDM,135.1,M*2F
$HCHDM,135.0,M*2E
$GPRMC,220740.000,A,2754.4918,N,08227.0184,W,0.00,0.00,030518,,,A*72
$HCHDM,135.0,M*2E
$HCHDM,135.0,M*2E
$HCHDM,134.9,M*26
$HCHDM,134.9,M*26
$HCHDM,134.8,M*27
$GPRMC,220741.000,A,2754.4918,N,08227.0184,W,0.00,0.00,030518,,,A*73
$HCHDM,134.8,M*27
$HCHDM,134.7,M*28
$HCHDM,134.7,M*28
$HCHDM,134.6,M*29
$HCHDM,134.6,M*29
$HCHDM,134.6,M*29
$HCHDM,134.6,M*29
$HCHDM,134.5,M*2A
$HCHDM,134.5,M*2A
$HCHDM,134.5,M*2A
$GPRMC,220742.000,A,2754.4918,N,08227.0184,W,0.00,0.00,030518,,,A*70
$HCHDM,134.5,M*2A
$HCHDM,134.4,M*2B
$HCHDM,134.4,M*2B
$HCHDM,134.4,M*2B
$HCHDM,134.3,M*2C
$HCHDM,134.3,M*2C
$HCHDM,134.3,M*2C
$HCHDM,134.3,M*2C
$HCHDM,134.3,M*2C
$HCHDM,134.3,M*2C
$GPRMC,220743.000,A,2754.4918,N,08227.0184,W,0.00,0.00,030518,,,A*71
$HCHDM,134.3,M*2C
$HCHDM,134.4,M*2B
$HCHDM,134.4,M*2B
$HCHDM,134.5,M*2A
$HCHDM,134.5,M*2A
$HCHDM,134.6,M*29
$HCHDM,134.6,M*29
$HCHDM,134.6,M*29
$HCHDM,134.7,M*28
$HCHDM,134.7,M*28
$GPRMC,220744.000,A,2754.4918,N,08227.0184,W,0.00,0.00,030518,,,A*76
$HCHDM,134.8,M*27
$HCHDM,134.8,M*27
$HCHDM,134.9,M*26
$HCHDM,134.9,M*26
$HCHDM,134.9,M*26
$HCHDM,134.9,M*26
$HCHDM,134.9,M*26
$HCHDM,135.0,M*2E
$HCHDM,134.9,M*26
$HCHDM,135.0,M*2E
$HCHDM,135.0,M*2E
$HCHDM,135.0,M*2E
$HCHDM,135.0,M*2E
$HCHDM,135.0,M*2E
$GPRMC,220745.000,A,2754.4918,N,08227.0184,W,0.00,0.00,030518,,,A*77
$HCHDM,135.0,M*2E
$HCHDM,135.0,M*2E
$HCHDM,135.0,M*2E
$HCHDM,135.0,M*2E
$HCHDM,135.0,M*2E
$HCHDM,135.0,M*2E
$GPRMC,220746.000,A,2754.4918,N,08227.0184,W,0.00,0.00,030518,,,A*74
$HCHDM,135.0,M*2E
$HCHDM,135.0,M*2E
$HCHDM,135.0,M*2E
$HCHDM,135.0,M*2E
$HCHDM,135.0,M*2E
$HCHDM,134.9,M*26
$HCHDM,134.9,M*26
$HCHDM,134.9,M*26
$HCHDM,134.9,M*26
$HCHDM,134.9,M*26
$GPRMC,220747.000,A,2754.4918,N,08227.0184,W,0.00,0.00,030518,,,A*75
$HCHDM,134.9,M*26
$HCHDM,134.9,M*26
$HCHDM,134.8,M*27
$HCHDM,134.8,M*27
$HCHDM,134.8,M*27
$HCHDM,134.8,M*27
$HCHDM,134.7,M*28
$HCHDM,134.7,M*28
$HCHDM,134.7,M*28
$HCHDM,134.7,M*28
$GPRMC,220748.000,A,2754.4918,N,08227.0184,W,0.00,0.00,030518,,,A*7A
$HCHDM,134.6,M*29
$HCHDM,134.6,M*29
$HCHDM,134.6,M*29
$HCHDM,134.6,M*29
$HCHDM,134.6,M*29
$HCHDM,134.6,M*29
$HCHDM,134.5,M*2A
$HCHDM,134.5,M*2A
$HCHDM,134.5,M*2A
$HCHDM,134.4,M*2B
$GPRMC,220749.000,A,2754.4918,N,08227.0184,W,0.00,0.00,030518,,,A*7B
$HCHDM,134.4,M*2B
$HCHDM,134.4,M*2B
$HCHDM,134.3,M*2C
$HCHDM,134.3,M*2C
$HCHDM,134.2,M*2D
$HCHDM,134.2,M*2D
$HCHDM,134.2,M*2D
$HCHDM,134.2,M*2D
$HCHDM,134.2,M*2D
$HCHDM,134.2,M*2D
$HCHDM,134.2,M*2D
$HCHDM,134.2,M*2D
$HCHDM,134.1,M*2E
$HCHDM,134.2,M*2D
$GPRMC,220750.000,A,2754.4918,N,08227.0184,W,0.00,0.00,030518,,,A*73
$HCHDM,134.2,M*2D
$HCHDM,134.2,M*2D
$HCHDM,134.2,M*2D
$HCHDM,134.2,M*2D
$HCHDM,134.3,M*2C
$HCHDM,134.3,M*2C
$GPRMC,220751.000,A,2754.4918,N,08227.0181,W,0.07,0.00,030518,,,A*70
$HCHDM,134.3,M*2C
$HCHDM,134.3,M*2C
$HCHDM,134.3,M*2C
$HCHDM,134.3,M*2C
$HCHDM,134.3,M*2C
$HCHDM,134.3,M*2C
$HCHDM,134.3,M*2C
$HCHDM,134.3,M*2C
$HCHDM,134.3,M*2C
$HCHDM,134.3,M*2C
$GPRMC,220752.000,A,2754.4918,N,08227.0181,W,0.01,0.00,030518,,,A*75
$HCHDM,134.3,M*2C
$HCHDM,134.3,M*2C
$HCHDM,134.3,M*2C
$HCHDM,134.3,M*2C
$HCHDM,134.3,M*2C
$HCHDM,134.3,M*2C
$HCHDM,134.4,M*2B
$HCHDM,134.4,M*2B
$HCHDM,134.4,M*2B
$HCHDM,134.4,M*2B
$GPRMC,220753.000,A,2754.4918,N,08227.0181,W,0.01,0.00,030518,,,A*74
$HCHDM,134.5,M*2A
$HCHDM,134.5,M*2A
$HCHDM,134.6,M*29
$HCHDM,134.6,M*29
$HCHDM,134.6,M*29
$HCHDM,134.7,M*28
$HCHDM,134.7,M*28
$HCHDM,134.7,M*28
$HCHDM,134.7,M*28
$HCHDM,134.7,M*28
$GPRMC,220754.000,A,2754.4918,N,08227.0181,W,0.00,0.00,030518,,,A*72
$HCHDM,134.7,M*28
$HCHDM,134.6,M*29
$HCHDM,134.6,M*29
$HCHDM,134.6,M*29
$HCHDM,134.5,M*2A
$HCHDM,134.4,M*2B
$HCHDM,134.3,M*2C
$HCHDM,134.2,M*2D
$HCHDM,134.1,M*2E
$HCHDM,133.9,M*21
$HCHDM,133.7,M*2F
$HCHDM,133.6,M*2E
$HCHDM,133.5,M*2D
$HCHDM,133.4,M*2C
$GPRMC,220755.000,A,2754.4918,N,08227.0181,W,0.00,0.00,030518,,,A*73
$HCHDM,133.3,M*2B
$HCHDM,133.1,M*29
$HCHDM,133.0,M*28
$HCHDM,132.9,M*20
$HCHDM,132.8,M*21
$HCHDM,132.7,M*2E
$GPRMC,220756.000,A,2754.4918,N,08227.0181,W,0.00,0.00,030518,,,A*70
$HCHDM,132.7,M*2E
$HCHDM,132.7,M*2E
$HCHDM,132.7,M*2E
$HCHDM,132.7,M*2E
$HCHDM,132.8,M*21
$HCHDM,132.9,M*20
$HCHDM,133.0,M*28
$HCHDM,133.1,M*29
$HCHDM,133.2,M*2A
$HCHDM,133.2,M*2A
$GPRMC,220757.000,A,2754.4918,N,08227.0181,W,0.00,0.00,030518,,,A*71
$HCHDM,133.4,M*2C
$HCHDM,133.5,M*2D
$HCHDM,133.6,M*2E
$HCHDM,133.7,M*2F
$HCHDM,133.8,M*20
$HCHDM,133.9,M*21
$HCHDM,133.9,M*21
$HCHDM,134.0,M*2F
$HCHDM,134.0,M*2F
$HCHDM,134.1,M*2E
$GPRMC,220758.000,A,2754.4918,N,08227.0181,W,0.00,0.00,030518,,,A*7E
$HCHDM,134.1,M*2E
$HCHDM,134.1,M*2E
$HCHDM,134.1,M*2E
$HCHDM,134.1,M*2E
$HCHDM,134.1,M*2E
$HCHDM,134.0,M*2F
$HCHDM,134.0,M*2F
$HCHDM,134.0,M*2F
$HCHDM,134.0,M*2F
$HCHDM,133.9,M*21
$GPRMC,220759.000,A,2754.4918,N,08227.0181,W,0.00,0.00,030518,,,A*7F
$HCHDM,133.9,M*21
$HCHDM,133.9,M*21
$HCHDM,133.9,M*21
$HCHDM,133.9,M*21
$HCHDM,133.9,M*21
$HCHDM,133.9,M*21
$HCHDM,133.9,M*21
$HCHDM,133.9,M*21
$HCHDM,133.9,M*21
$HCHDM,133.9,M*21
$HCHDM,134.0,M*2F
$HCHDM,134.1,M*2E
$HCHDM,134.1,M*2E
$HCHDM,134.2,M*2D
$GPRMC,220800.000,A,2754.4918,N,08227.0181,W,0.00,0.00,030518,,,A*7C
$HCHDM,134.3,M*2C
$HCHDM,134.3,M*2C
$HCHDM,134.4,M*2B
$HCHDM,134.5,M*2A
$HCHDM,134.5,M*2A
$HCHDM,134.6,M*29
$GPRMC,220801.000,A,2754.4918,N,08227.0181,W,0.00,0.00,030518,,,A*7D
$HCHDM,134.7,M*28
$HCHDM,134.7,M*28
$HCHDM,134.8,M*27
$HCHDM,134.8,M*27
$HCHDM,134.9,M*26
$HCHDM,135.0,M*2E
$HCHDM,135.0,M*2E
$HCHDM,135.1,M*2F
$HCHDM,135.1,M*2F
$HCHDM,135.2,M*2C
$GPRMC,220802.000,A,2754.4918,N,08227.0180,W,0.00,0.00,030518,,,A*7F
$HCHDM,135.3,M*2D
$HCHDM,135.3,M*2D
$HCHDM,135.3,M*2D
$HCHDM,135.4,M*2A
$HCHDM,135.4,M*2A
$HCHDM,135.4,M*2A
$HCHDM,135.5,M*2B
$HCHDM,135.5,M*2B
$HCHDM,135.5,M*2B
$HCHDM,135.5,M*2B
$GPRMC,220803.000,A,2754.4918,N,08227.0180,W,0.00,0.00,030518,,,A*7E
$HCHDM,135.5,M*2B
$HCHDM,135.5,M*2B
$HCHDM,135.5,M*2B
$HCHDM,135.5,M*2B
$HCHDM,135.5,M*2B
$HCHDM,135.5,M*2B
$HCHDM,135.4,M*2A
$HCHDM,135.4,M*2A
$HCHDM,135.4,M*2A
$HCHDM,135.4,M*2A
$GPRMC,220804.000,A,2754.4918,N,08227.0180,W,0.00,0.00,030518,,,A*79
$HCHDM,135.3,M*2D
$HCHDM,135.3,M*2D
$HCHDM,135.2,M*2C
$HCHDM,135.2,M*2C
$HCHDM,135.2,M*2C
$HCHDM,135.1,M*2F
$HCHDM,135.1,M*2F
$HCHDM,135.1,M*2F
$HCHDM,135.0,M*2E
$HCHDM,135.0,M*2E
$HCHDM,134.9,M*26
$HCHDM,134.9,M*26
$HCHDM,134.9,M*26
$HCHDM,134.8,M*27
$HCHDM,134.8,M*27
$GPRMC,220805.000,A,2754.4918,N,08227.0180,W,0.00,0.00,030518,,,A*78
$HCHDM,134.8,M*27
$HCHDM,134.8,M*27
$HCHDM,134.7,M*28
$HCHDM,134.7,M*28
$HCHDM,134.7,M*28
$GPRMC,220806.000,A,2754.4918,N,08227.0180,W,0.00,0.00,030518,,,A*7B
$HCHDM,134.7,M*28
$HCHDM,134.6,M*29
$HCHDM,134.6,M*29
$HCHDM,134.6,M*29
$HCHDM,134.6,M*29
$HCHDM,134.6,M*29
$HCHDM,134.6,M*29
$HCHDM,134.6,M*29
$HCHDM,134.6,M*29
$HCHDM,134.6,M*29
$GPRMC,220807.000,A,2754.4918,N,08227.0180,W,0.00,0.00,030518,,,A*7A
$HCHDM,134.6,M*29
$HCHDM,134.6,M*29
$HCHDM,134.6,M*29
$HCHDM,134.6,M*29
$HCHDM,134.6,M*29
$HCHDM,134.6,M*29
$HCHDM,134.5,M*2A
$HCHDM,134.5,M*2A
$HCHDM,134.5,M*2A
$HCHDM,134.5,M*2A
$GPRMC,220808.000,A,2754.4918,N,08227.0180,W,0.00,0.00,030518,,,A*75
$HCHDM,134.5,M*2A
$HCHDM,134.5,M*2A
$HCHDM,134.5,M*2A
$HCHDM,134.5,M*2A
$HCHDM,134.5,M*2A
$HCHDM,134.5,M*2A
$HCHDM,134.5,M*2A
$HCHDM,134.5,M*2A
$HCHDM,134.5,M*2A
$HCHDM,134.4,M*2B
$GPRMC,220809.000,A,2754.4918,N,08227.0180,W,0.00,0.00,030518,,,A*74
$HCHDM,134.4,M*2B
$HCHDM,134.4,M*2B
$HCHDM,134.4,M*2B
$HCHDM,134.4,M*2B
$HCHDM,134.4,M*2B
$HCHDM,134.4,M*2B
$HCHDM,134.4,M*2B
$HCHDM,134.3,M*2C
$HCHDM,134.3,M*2C
$HCHDM,134.3,M*2C
$HCHDM,134.2,M*2D
$HCHDM,134.2,M*2D
$HCHDM,134.2,M*2D
$HCHDM,134.1,M*2E
$HCHDM,134.1,M*2E
$GPRMC,220810.000,A,2754.4918,N,08227.0180,W,0.00,0.00,030518,,,A*7C
$HCHDM,134.0,M*2F
$HCHDM,134.0,M*2F
$HCHDM,133.9,M*21
$HCHDM,133.9,M*21
$HCHDM,133.8,M*20
$GPRMC,220811.000,A,2754.4918,N,08227.0180,W,0.00,0.00,030518,,,A*7D
$HCHDM,133.8,M*20
$HCHDM,133.8,M*20
$HCHDM,133.8,M*20
$HCHDM,133.8,M*20
$HCHDM,133.7,M*2F
$HCHDM,133.7,M*2F
$HCHDM,133.7,M*2F
$HCHDM,133.8,M*20
$HCHDM,133.8,M*20
$HCHDM,133.8,M*20
$GPRMC,220812.000,A,2754.4918,N,08227.0180,W,0.00,0.00,030518,,,A*7E
$HCHDM,133.8,M*20
$HCHDM,133.8,M*20
$HCHDM,133.9,M*21
$HCHDM,133.9,M*21
$HCHDM,133.9,M*21
$HCHDM,133.9,M*21
$HCHDM,134.0,M*2F
$HCHDM,134.0,M*2F
$HCHDM,134.0,M*2F
$HCHDM,134.1,M*2E
$GPRMC,220813.000,A,2754.4918,N,08227.0180,W,0.00,0.00,030518,,,A*7F
$HCHDM,134.1,M*2E
$HCHDM,134.1,M*2E
$HCHDM,134.1,M*2E
$HCHDM,134.2,M*2D
$HCHDM,134.2,M*2D
$HCHDM,134.2,M*2D
$HCHDM,134.2,M*2D
$HCHDM,134.2,M*2D
$HCHDM,134.2,M*2D
$HCHDM,134.2,M*2D
$GPRMC,220814.000,A,2754.4918,N,08227.0180,W,0.00,0.00,030518,,,A*78
$HCHDM,134.2,M*2D
$HCHDM,134.2,M*2D
$HCHDM,134.1,M*2E
$HCHDM,134.1,M*2E
$HCHDM,134.1,M*2E
$HCHDM,134.1,M*2E
$HCHDM,134.1,M*2E
$HCHDM,134.1,M*2E
$HCHDM,134.1,M*2E
$HCHDM,134.1,M*2E
$HCHDM,134.0,M*2F
$HCHDM,134.0,M*2F
$HCHDM,134.0,M*2F
$HCHDM,134.0,M*2F
$HCHDM,134.0,M*2F
$GPRMC,220815.000,A,2754.4918,N,08227.0180,W,0.00,0.00,030518,,,A*79
$HCHDM,134.0,M*2F
$HCHDM,134.0,M*2F
$HCHDM,134.0,M*2F
$HCHDM,134.0,M*2F
$HCHDM,134.0,M*2F
$GPRMC,220816.000,A,2754.4918,N,08227.0180,W,0.00,0.00,030518,,,A*7A
$HCHDM,134.0,M*2F
$HCHDM,134.0,M*2F
$HCHDM,134.0,M*2F
$HCHDM,134.0,M*2F
$HCHDM,134.0,M*2F
$HCHDM,134.0,M*2F
$HCHDM,134.1,M*2E
$HCHDM,134.1,M*2E
$HCHDM,134.1,M*2E
$HCHDM,134.2,M*2D
$GPRMC,220817.000,A,2754.4918,N,08227.0180,W,0.00,0.00,030518,,,A*7B
$HCHDM,134.2,M*2D
$HCHDM,134.2,M*2D
$HCHDM,134.2,M*2D
$HCHDM,134.3,M*2C
$HCHDM,134.3,M*2C
$HCHDM,134.3,M*2C
$HCHDM,134.3,M*2C
$HCHDM,134.3,M*2C
$HCHDM,134.3,M*2C
$HCHDM,134.2,M*2D
$GPRMC,220818.000,A,2754.4918,N,08227.0180,W,0.00,0.00,030518,,,A*74
$HCHDM,134.2,M*2D
$HCHDM,134.1,M*2E
$HCHDM,134.1,M*2E
$HCHDM,134.0,M*2F
$HCHDM,133.9,M*21
$HCHDM,133.8,M*20
$HCHDM,133.7,M*2F
$HCHDM,133.7,M*2F
$HCHDM,133.6,M*2E
$HCHDM,133.5,M*2D
$GPRMC,220819.000,A,2754.4918,N,08227.0180,W,0.00,0.00,030518,,,A*75
$HCHDM,133.5,M*2D
$HCHDM,133.4,M*2C
$HCHDM,133.3,M*2B
$HCHDM,133.3,M*2B
$HCHDM,133.2,M*2A
$HCHDM,133.2,M*2A
$HCHDM,133.2,M*2A
$HCHDM,133.2,M*2A
$HCHDM,133.2,M*2A
$HCHDM,133.2,M*2A
$HCHDM,133.3,M*2B
$HCHDM,133.3,M*2B
$HCHDM,133.4,M*2C
$HCHDM,133.5,M*2D
$HCHDM,133.6,M*2E
$GPRMC,220820.000,A,2754.4918,N,08227.0180,W,0.00,0.00,030518,,,A*7F
$HCHDM,133.7,M*2F
$HCHDM,133.8,M*20
$HCHDM,133.9,M*21
$HCHDM,134.0,M*2F
$HCHDM,134.1,M*2E
$GPRMC,220821.000,A,2754.4918,N,08227.0180,W,0.10,0.00,030518,,,A*7F
$HCHDM,134.1,M*2E
$HCHDM,134.3,M*2C
$HCHDM,134.3,M*2C
$HCHDM,134.4,M*2B
$HCHDM,134.4,M*2B
$HCHDM,134.5,M*2A
$HCHDM,134.6,M*29
$HCHDM,134.6,M*29
$HCHDM,134.6,M*29
$HCHDM,134.7,M*28
$GPRMC,220822.000,A,2754.4918,N,08227.0180,W,0.00,0.00,030518,,,A*7D
$HCHDM,134.7,M*28
$HCHDM,134.7,M*28
$HCHDM,134.7,M*28
$HCHDM,134.8,M*27
$HCHDM,134.9,M*26
$HCHDM,134.9,M*26
$HCHDM,134.9,M*26
$HCHDM,135.0,M*2E
$HCHDM,135.1,M*2F
$HCHDM,135.1,M*2F
$GPRMC,220823.000,A,2754.4918,N,08227.0180,W,0.00,0.00,030518,,,A*7C
$HCHDM,135.2,M*2C
$HCHDM,135.2,M*2C
$HCHDM,135.3,M*2D
$HCHDM,135.4,M*2A
$HCHDM,135.4,M*2A
$HCHDM,135.5,M*2B
$HCHDM,135.6,M*28
$HCHDM,135.7,M*29
$HCHDM,135.7,M*29
$HCHDM,135.8,M*26
$GPRMC,220824.000,A,2754.4918,N,08227.0180,W,0.00,0.00,030518,,,A*7B
$HCHDM,135.8,M*26
$HCHDM,135.8,M*26
$HCHDM,135.9,M*27
$HCHDM,135.9,M*27
$HCHDM,135.9,M*27
$HCHDM,135.9,M*27
$HCHDM,135.9,M*27
$HCHDM,135.9,M*27
$HCHDM,135.9,M*27
$HCHDM,135.8,M*26
$HCHDM,135.8,M*26
$HCHDM,135.7,M*29
$HCHDM,135.7,M*29
$HCHDM,135.7,M*29
$HCHDM,135.7,M*29
$GPRMC,220825.000,A,2754.4918,N,08227.0180,W,0.00,0.00,030518,,,A*7A
$HCHDM,135.7,M*29
$HCHDM,135.7,M*29
$HCHDM,135.6,M*28
$HCHDM,135.6,M*28
$HCHDM,135.6,M*28
$GPRMC,220826.000,A,2754.4918,N,08227.0180,W,0.00,0.00,030518,,,A*79
$HCHDM,135.5,M*2B
$HCHDM,135.5,M*2B
$HCHDM,135.5,M*2B
$HCHDM,135.5,M*2B
$HCHDM,135.5,M*2B
$HCHDM,135.5,M*2B
$HCHDM,135.5,M*2B
$HCHDM,135.5,M*2B
$HCHDM,135.5,M*2B
$HCHDM,135.4,M*2A
$GPRMC,220827.000,A,2754.4918,N,08227.0180,W,0.00,0.00,030518,,,A*78
$HCHDM,135.4,M*2A
$HCHDM,135.4,M*2A
$HCHDM,135.4,M*2A
$HCHDM,135.4,M*2A
$HCHDM,135.4,M*2A
$HCHDM,135.4,M*2A
$HCHDM,135.5,M*2B
$HCHDM,135.5,M*2B
$HCHDM,135.5,M*2B
$HCHDM,135.6,M*28
$GPRMC,220828.000,A,2754.4918,N,08227.0180,W,0.00,0.00,030518,,,A*77
$HCHDM,135.6,M*28
$HCHDM,135.7,M*29
$HCHDM,135.8,M*26
$HCHDM,135.9,M*27
$HCHDM,135.9,M*27
$HCHDM,136.1,M*2C
$HCHDM,136.2,M*2F
$HCHDM,136.3,M*2E
$HCHDM,136.4,M*29
$HCHDM,136.6,M*2B
$GPRMC,220829.000,A,2754.4918,N,08227.0180,W,0.00,0.00,030518,,,A*76
$HCHDM,136.7,M*2A
$HCHDM,136.8,M*25
$HCHDM,136.9,M*24
$HCHDM,137.0,M*2C
$HCHDM,137.2,M*2E
$HCHDM,137.3,M*2F
$HCHDM,137.3,M*2F
$HCHDM,137.4,M*28
$HCHDM,137.4,M*28
$HCHDM,137.5,M*29
$HCHDM,137.5,M*29
$HCHDM,137.5,M*29
$HCHDM,137.4,M*28
$HCHDM,137.4,M*28
$HCHDM,137.4,M*28
$GPRMC,220830.000,A,2754.4918,N,08227.0180,W,0.00,0.00,030518,,,A*7E
$HCHDM,137.3,M*2F
$HCHDM,137.2,M*2E
$HCHDM,137.1,M*2D
$HCHDM,137.1,M*2D
$HCHDM,137.0,M*2C
$GPRMC,220831.000,A,2754.4918,N,08227.0180,W,0.00,0.00,030518,,,A*7F
$HCHDM,136.9,M*24
$HCHDM,136.8,M*25
$HCHDM,136.7,M*2A
$HCHDM,136.6,M*2B
$HCHDM,136.5,M*28
$HCHDM,136.5,M*28
$HCHDM,136.4,M*29
$HCHDM,136.4,M*29
$HCHDM,136.3,M*2E
$HCHDM,136.3,M*2E
$GPRMC,220832.000,A,2754.4918,N,08227.0180,W,0.00,0.00,030518,,,A*7C
$HCHDM,136.3,M*2E
$HCHDM,136.2,M*2F
$HCHDM,136.2,M*2F
$HCHDM,136.2,M*2F
$HCHDM,136.2,M*2F
$HCHDM,136.1,M*2C
$HCHDM,136.1,M*2C
$HCHDM,136.1,M*2C
$HCHDM,136.0,M*2D
$HCHDM,136.0,M*2D
$GPRMC,220833.000,A,2754.4918,N,08227.0180,W,0.00,0.00,030518,,,A*7D
$HCHDM,135.9,M*27
$HCHDM,135.9,M*27
$HCHDM,135.8,M*26
$HCHDM,135.7,M*29
$HCHDM,135.6,M*28
$HCHDM,135.5,M*2B
$HCHDM,135.4,M*2A
$HCHDM,135.3,M*2D
$HCHDM,135.1,M*2F
$HCHDM,135.0,M*2E
$GPRMC,220834.000,A,2754.4918,N,08227.0180,W,0.00,0.00,030518,,,A*7A
$HCHDM,134.8,M*27
$HCHDM,134.7,M*28
$HCHDM,134.6,M*29
$HCHDM,134.4,M*2B
$HCHDM,134.3,M*2C
$HCHDM,134.2,M*2D
$HCHDM,134.1,M*2E
$HCHDM,134.0,M*2F
$HCHDM,133.9,M*21
$HCHDM,133.9,M*21
$HCHDM,133.8,M*20
$HCHDM,133.8,M*20
$HCHDM,133.7,M*2F
$HCHDM,133.7,M*2F
$HCHDM,133.7,M*2F
$GPRMC,220835.000,A,2754.4918,N,08227.0180,W,0.00,0.00,030518,,,A*7B
$HCHDM,133.7,M*2F
$HCHDM,133.7,M*2F
$HCHDM,133.7,M*2F
$HCHDM,133.8,M*20
$HCHDM,133.8,M*20
$GPRMC,220836.000,A,2754.4918,N,08227.0180,W,0.00,0.00,030518,,,A*78
$HCHDM,133.8,M*20
$HCHDM,133.9,M*21
$HCHDM,133.9,M*21
$HCHDM,133.9,M*21
$HCHDM,133.9,M*21
$HCHDM,133.9,M*21
$HCHDM,133.9,M*21
$HCHDM,133.9,M*21
$HCHDM,133.9,M*21
$HCHDM,133.9,M*21
$GPRMC,220837.000,A,2754.4918,N,08227.0180,W,0.00,0.00,030518,,,A*79
$HCHDM,133.8,M*20
$HCHDM,133.8,M*20
$HCHDM,133.8,M*20
$HCHDM,133.8,M*20
$HCHDM,133.7,M*2F
$HCHDM,133.7,M*2F
$HCHDM,133.7,M*2F
$HCHDM,133.7,M*2F
$HCHDM,133.6,M*2E
$HCHDM,133.6,M*2E
$GPRMC,220838.000,A,2754.4918,N,08227.0180,W,0.00,0.00,030518,,,A*76
$HCHDM,133.6,M*2E
$HCHDM,133.6,M*2E
$HCHDM,133.5,M*2D
$HCHDM,133.5,M*2D
$HCHDM,133.5,M*2D
$HCHDM,133.5,M*2D
$HCHDM,133.5,M*2D
$HCHDM,133.5,M*2D
$HCHDM,133.5,M*2D
$HCHDM,133.5,M*2D
$GPRMC,220839.000,A,2754.4918,N,08227.0180,W,0.00,0.00,030518,,,A*77
$HCHDM,133.5,M*2D
$HCHDM,133.5,M*2D
$HCHDM,133.5,M*2D
$HCHDM,133.5,M*2D
$HCHDM,133.5,M*2D
$HCHDM,133.6,M*2E
$HCHDM,133.6,M*2E
$HCHDM,133.7,M*2F
$HCHDM,133.7,M*2F
$HCHDM,133.8,M*20
$HCHDM,133.9,M*21
$HCHDM,134.0,M*2F
$HCHDM,134.0,M*2F
$HCHDM,134.1,M*2E
$HCHDM,134.2,M*2D
$GPRMC,220840.000,A,2754.4918,N,08227.0180,W,0.00,0.00,030518,,,A*79
$HCHDM,134.2,M*2D
$HCHDM,134.3,M*2C
$HCHDM,134.4,M*2B
$HCHDM,134.4,M*2B
$HCHDM,134.5,M*2A
$GPRMC,220841.000,A,2754.4918,N,08227.0180,W,0.00,0.00,030518,,,A*78
$HCHDM,134.6,M*29
$HCHDM,134.6,M*29
$HCHDM,134.6,M*29
$HCHDM,134.7,M*28
$HCHDM,134.7,M*28
$HCHDM,134.7,M*28
$HCHDM,134.6,M*29
$HCHDM,134.6,M*29
$HCHDM,134.6,M*29
$HCHDM,134.5,M*2A
$GPRMC,220842.000,A,2754.4918,N,08227.0180,W,0.00,0.00,030518,,,A*7B
$HCHDM,134.5,M*2A
$HCHDM,134.5,M*2A
$HCHDM,134.5,M*2A
$HCHDM,134.5,M*2A
$HCHDM,134.4,M*2B
$HCHDM,134.4,M*2B
$HCHDM,134.4,M*2B
$HCHDM,134.4,M*2B
$HCHDM,134.4,M*2B
$HCHDM,134.4,M*2B
$GPRMC,220843.000,A,2754.4918,N,08227.0180,W,0.00,0.00,030518,,,A*7A
$HCHDM,134.4,M*2B
$HCHDM,134.4,M*2B
$HCHDM,134.4,M*2B
$HCHDM,134.4,M*2B
$HCHDM,134.4,M*2B
$HCHDM,134.5,M*2A
$HCHDM,134.5,M*2A
$HCHDM,134.5,M*2A
$HCHDM,134.6,M*29
$HCHDM,134.6,M*29
$GPRMC,220844.000,A,2754.4918,N,08227.0180,W,0.00,0.00,030518,,,A*7D
$HCHDM,134.7,M*28
$HCHDM,134.7,M*28
$HCHDM,134.8,M*27
$HCHDM,134.9,M*26
$HCHDM,134.9,M*26
$HCHDM,134.9,M*26
$HCHDM,135.0,M*2E
$HCHDM,135.0,M*2E
$HCHDM,135.0,M*2E
$HCHDM,135.0,M*2E
$HCHDM,135.0,M*2E
$HCHDM,135.0,M*2E
$HCHDM,135.0,M*2E
$HCHDM,135.0,M*2E
$HCHDM,135.0,M*2E
$GPRMC,220845.000,A,2754.4918,N,08227.0180,W,0.00,0.00,030518,,,A*7C
$HCHDM,135.0,M*2E
$HCHDM,135.1,M*2F
$HCHDM,135.1,M*2F
$HCHDM,135.1,M*2F
$HCHDM,135.1,M*2F
$GPRMC,220846.000,A,2754.4918,N,08227.0180,W,0.00,0.00,030518,,,A*7F
$HCHDM,135.1,M*2F
$HCHDM,135.1,M*2F
$HCHDM,135.1,M*2F
$HCHDM,135.2,M*2C
$HCHDM,135.2,M*2C
$HCHDM,135.2,M*2C
$HCHDM,135.2,M*2C
$HCHDM,135.2,M*2C
$HCHDM,135.2,M*2C
$HCHDM,135.2,M*2C
$GPRMC,220847.000,A,2754.4918,N,08227.0180,W,0.00,0.00,030518,,,A*7E
$HCHDM,135.2,M*2C
$HCHDM,135.2,M*2C
$HCHDM,135.2,M*2C
$HCHDM,135.1,M*2F
$HCHDM,135.1,M*2F
$HCHDM,135.1,M*2F
$HCHDM,135.1,M*2F
$HCHDM,135.1,M*2F
$HCHDM,135.1,M*2F
$HCHDM,135.0,M*2E
$GPRMC,220848.000,A,2754.4918,N,08227.0180,W,0.00,0.00,030518,,,A*71
$HCHDM,135.0,M*2E
$HCHDM,135.0,M*2E
$HCHDM,135.0,M*2E
$HCHDM,135.0,M*2E
$HCHDM,135.0,M*2E
$HCHDM,135.0,M*2E
$HCHDM,135.0,M*2E
$HCHDM,135.0,M*2E
$HCHDM,135.0,M*2E
$HCHDM,135.0,M*2E
$GPRMC,220849.000,A,2754.4918,N,08227.0180,W,0.00,0.00,030518,,,A*70
$HCHDM,135.0,M*2E
$HCHDM,135.0,M*2E
$HCHDM,135.0,M*2E
$HCHDM,135.0,M*2E
$HCHDM,135.0,M*2E
$HCHDM,135.0,M*2E
$HCHDM,135.0,M*2E
$HCHDM,134.9,M*26
$HCHDM,134.9,M*26
$HCHDM,134.8,M*27
$HCHDM,134.8,M*27
$HCHDM,134.8,M*27
$HCHDM,134.7,M*28
$HCHDM,134.7,M*28
$HCHDM,134.7,M*28
$GPRMC,220850.000,A,2754.4918,N,08227.0180,W,0.00,0.00,030518,,,A*78
$HCHDM,134.6,M*29
$HCHDM,134.6,M*29
$HCHDM,134.5,M*2A
$HCHDM,134.5,M*2A
$HCHDM,134.5,M*2A
$GPRMC,220851.000,A,2754.4918,N,08227.0180,W,0.00,0.00,030518,,,A*79
$HCHDM,134.5,M*2A
$HCHDM,134.5,M*2A
$HCHDM,134.5,M*2A
$HCHDM,134.4,M*2B
$HCHDM,134.5,M*2A
$HCHDM,134.5,M*2A
$HCHDM,134.4,M*2B
$HCHDM,134.4,M*2B
$HCHDM,134.4,M*2B
$HCHDM,134.3,M*2C
$GPRMC,220852.000,A,2754.4918,N,08227.0180,W,0.00,0.00,030518,,,A*7A
$HCHDM,134.3,M*2C
$HCHDM,134.2,M*2D
$HCHDM,134.1,M*2E
$HCHDM,134.1,M*2E
$HCHDM,134.0,M*2F
$HCHDM,133.9,M*21
$HCHDM,133.8,M*20
$HCHDM,133.7,M*2F
$HCHDM,133.7,M*2F
$HCHDM,133.6,M*2E
$GPRMC,220853.000,A,2754.4917,N,08227.0178,W,0.20,0.00,030518,,,A*71
$HCHDM,133.6,M*2E
$HCHDM,133.6,M*2E
$HCHDM,133.6,M*2E
$HCHDM,133.6,M*2E
$HCHDM,133.6,M*2E
$HCHDM,133.6,M*2E
$HCHDM,133.6,M*2E
$HCHDM,133.6,M*2E
$HCHDM,133.6,M*2E
$HCHDM,133.6,M*2E
$GPRMC,220854.000,A,2754.4917,N,08227.0178,W,0.02,0.00,030518,,,A*76
$HCHDM,133.7,M*2F
$HCHDM,133.7,M*2F
$HCHDM,133.7,M*2F
$HCHDM,133.8,M*20
$HCHDM,133.8,M*20
$HCHDM,133.9,M*21
$HCHDM,133.9,M*21
$HCHDM,134.0,M*2F
$HCHDM,134.1,M*2E
$HCHDM,134.1,M*2E
$HCHDM,134.1,M*2E
$HCHDM,134.2,M*2D
$HCHDM,134.2,M*2D
$HCHDM,134.2,M*2D
$HCHDM,134.2,M*2D
$GPRMC,220855.000,A,2754.4917,N,08227.0178,W,0.01,0.00,030518,,,A*74
$HCHDM,134.2,M*2D
$HCHDM,134.2,M*2D
$HCHDM,134.2,M*2D
$HCHDM,134.1,M*2E
$HCHDM,134.0,M*2F
$GPRMC,220856.000,A,2754.4917,N,08227.0178,W,0.00,0.00,030518,,,A*76
$HCHDM,134.0,M*2F
$HCHDM,133.9,M*21
$HCHDM,133.8,M*20
$HCHDM,133.7,M*2F
$HCHDM,133.7,M*2F
$HCHDM,133.6,M*2E
$HCHDM,133.6,M*2E
$HCHDM,133.5,M*2D
$HCHDM,133.4,M*2C
$HCHDM,133.4,M*2C
$GPRMC,220857.000,A,2754.4917,N,08227.0178,W,0.00,0.00,030518,,,A*77
$HCHDM,133.4,M*2C
$HCHDM,133.3,M*2B
$HCHDM,133.3,M*2B
$HCHDM,133.3,M*2B
$HCHDM,133.3,M*2B
$HCHDM,133.3,M*2B
$HCHDM,133.3,M*2B
$HCHDM,133.3,M*2B
$HCHDM,133.4,M*2C
$HCHDM,133.4,M*2C
$GPRMC,220858.000,A,2754.4917,N,08227.0178,W,0.00,0.00,030518,,,A*78
$HCHDM,133.4,M*2C
$HCHDM,133.4,M*2C
$HCHDM,133.4,M*2C
$HCHDM,133.4,M*2C
$HCHDM,133.4,M*2C
$HCHDM,133.4,M*2C
$HCHDM,133.5,M*2D
$HCHDM,133.5,M*2D
$HCHDM,133.5,M*2D
$HCHDM,133.5,M*2D
$GPRMC,220859.000,A,2754.4917,N,08227.0178,W,0.00,0.00,030518,,,A*79
$HCHDM,133.5,M*2D
$HCHDM,133.5,M*2D
$HCHDM,133.5,M*2D
$HCHDM,133.5,M*2D
$HCHDM,133.5,M*2D
$HCHDM,133.5,M*2D
$HCHDM,133.5,M*2D
$HCHDM,133.4,M*2C
$HCHDM,133.4,M*2C
$HCHDM,133.5,M*2D
$HCHDM,133.5,M*2D
$HCHDM,133.5,M*2D
$HCHDM,133.5,M*2D
$HCHDM,133.5,M*2D
$HCHDM,133.5,M*2D
$GPRMC,220900.000,A,2754.4917,N,08227.0178,W,0.00,0.00,030518,,,A*74
$HCHDM,133.5,M*2D
$HCHDM,133.5,M*2D
$HCHDM,133.5,M*2D
$HCHDM,133.5,M*2D
$HCHDM,133.5,M*2D
$GPRMC,220901.000,A,2754.4917,N,08227.0178,W,0.00,0.00,030518,,,A*75
$HCHDM,133.6,M*2E
$HCHDM,133.6,M*2E
$HCHDM,133.6,M*2E
$HCHDM,133.6,M*2E
$HCHDM,133.6,M*2E
$HCHDM,133.6,M*2E
$HCHDM,133.6,M*2E
$HCHDM,133.6,M*2E
$HCHDM,133.6,M*2E
$HCHDM,133.6,M*2E
$GPRMC,220902.000,A,2754.4917,N,08227.0178,W,0.00,0.00,030518,,,A*76
$HCHDM,133.6,M*2E
$HCHDM,133.6,M*2E
$HCHDM,133.6,M*2E
$HCHDM,133.6,M*2E
$HCHDM,133.5,M*2D
$HCHDM,133.5,M*2D
$HCHDM,133.5,M*2D
$HCHDM,133.5,M*2D
$HCHDM,133.5,M*2D
$HCHDM,133.5,M*2D
$GPRMC,220903.000,A,2754.4917,N,08227.0178,W,0.00,0.00,030518,,,A*77
$HCHDM,133.5,M*2D
$HCHDM,133.5,M*2D
$HCHDM,133.5,M*2D
$HCHDM,133.5,M*2D
$HCHDM,133.5,M*2D
$HCHDM,133.5,M*2D
$HCHDM,133.5,M*2D
$HCHDM,133.6,M*2E
$HCHDM,133.6,M*2E
$HCHDM,133.6,M*2E
$GPRMC,220904.000,A,2754.4917,N,08227.0178,W,0.00,0.00,030518,,,A*70
$HCHDM,133.6,M*2E
$HCHDM,133.6,M*2E
$HCHDM,133.7,M*2F
$HCHDM,133.7,M*2F
$HCHDM,133.7,M*2F
$HCHDM,133.7,M*2F
$HCHDM,133.7,M*2F
$HCHDM,133.8,M*20
$HCHDM,133.8,M*20
$HCHDM,133.8,M*20
$HCHDM,133.8,M*20
$HCHDM,133.8,M*20
$HCHDM,133.8,M*20
$GPGSV,3,3,12,02$HCHDM,133.4,M*2C
$HCHDM,133.4,M*2C
$HCHDM,133.4,M*2C
$HCHDM,133.5,M*2D
$HCHDM,133.5,M*2D
$HCHDM,133.5,M*2D
$HCHDM,133.6,M*2E
$HCHDM,133.6,M*2E
$HCHDM,133.8,M*20
$HCHDM,133.8,M*20
$GPRMC,221047.000,A,2754.4910,N,08227.0232,W,0.00,0.00,030518,,,A*75
$HCHDM,133.9,M*21
$HCHDM,133.9,M*21
$HCHDM,133.8,M*20
$HCHDM,133.8,M*20
$HCHDM,133.8,M*20
$HCHDM,133.7,M*2F
$HCHDM,133.7,M*2F
$HCHDM,133.6,M*2E
$HCHDM,133.5,M*2D
$HCHDM,133.4,M*2C
$HCHDM,133.3,M*2B
$HCHDM,133.2,M*2A
$HCHDM,133.1,M*29
$HCHDM,133.0,M*28
$HCHDM,133.0,M*28
$GPRMC,221048.000,A,2754.4910,N,08227.0232,W,0.00,0.00,030518,,,A*7A
$HCHDM,132.9,M*20
$HCHDM,132.8,M*21
$HCHDM,132.7,M*2E
$HCHDM,132.6,M*2F
$HCHDM,132.5,M*2C
$GPRMC,221049.000,A,2754.4909,N,08227.0227,W,0.10,0.00,030518,,,A*76
$HCHDM,132.5,M*2C
$HCHDM,132.4,M*2D
$HCHDM,132.4,M*2D
$HCHDM,132.3,M*2A
$HCHDM,132.3,M*2A
$HCHDM,132.3,M*2A
$HCHDM,132.3,M*2A
$HCHDM,132.3,M*2A
$HCHDM,132.4,M*2D
$HCHDM,132.4,M*2D
$GPRMC,221050.000,A,2754.4909,N,08227.0227,W,0.01,0.00,030518,,,A*7E
$HCHDM,132.5,M*2C
$HCHDM,132.6,M*2F
$HCHDM,132.6,M*2F
$HCHDM,132.7,M*2E
$HCHDM,132.7,M*2E
$HCHDM,132.8,M*21
$HCHDM,132.9,M*20
$HCHDM,132.9,M*20
$HCHDM,133.0,M*28
$HCHDM,133.1,M*29
$GPRMC,221051.000,A,2754.4909,N,08227.0227,W,0.01,0.00,030518,,,A*7F
$HCHDM,133.1,M*29
$HCHDM,133.2,M*2A
$HCHDM,133.2,M*2A
$HCHDM,133.2,M*2A
$HCHDM,133.2,M*2A
$HCHDM,133.1,M*29
$HCHDM,133.1,M*29
$HCHDM,133.1,M*29
$HCHDM,133.0,M*28
$HCHDM,133.0,M*28
$GPRMC,221052.000,A,2754.4909,N,08227.0227,W,0.00,0.00,030518,,,A*7D
$HCHDM,132.9,M*20
$HCHDM,132.9,M*20
$HCHDM,132.8,M*21
$HCHDM,132.8,M*21
$HCHDM,132.7,M*2E
$HCHDM,132.7,M*2E
$HCHDM,132.6,M*2F
$HCHDM,132.6,M*2F
$HCHDM,132.6,M*2F
$HCHDM,132.6,M*2F
$HCHDM,132.7,M*2E
$HCHDM,132.7,M*2E
$HCHDM,132.8,M*21
$HCHDM,132.8,M*21
$HCHDM,132.8,M*21
$GPRMC,221053.000,A,2754.4909,N,08227.0227,W,0.00,0.00,030518,,,A*7C
$HCHDM,132.9,M*20
$HCHDM,132.9,M*20
$HCHDM,133.0,M*28
$HCHDM,133.0,M*28
$HCHDM,133.1,M*29
$GPRMC,221054.000,A,2754.4909,N,08227.0227,W,0.00,0.00,030518,,,A*7B
$HCHDM,133.2,M*2A
$HCHDM,133.3,M*2B
$HCHDM,010.0,M*28
$HCHDM,133.3,M*2B
$HCHDM,133.4,M*2C
$HCHDM,133.4,M*2C
$HCHDM,133.5,M*2D
$HCHDM,133.6,M*2E
$HCHDM,133.6,M*2E
$HCHDM,133.6,M*2E
$HCHDM,133.7,M*2F
$GPRMC,221055.000,A,2754.4909,N,08227.0226,W,0.00,0.00,030518,,,A*7B
$HCHDM,133.7,M*2F
$HCHDM,133.7,M*2F
$HCHDM,133.7,M*2F
$HCHDM,009.0,M*20
$HCHDM,133.7,M*2F
$HCHDM,133.7,M*2F
$HCHDM,133.6,M*2E
$HCHDM,133.6,M*2E
$HCHDM,133.6,M*2E
$HCHDM,133.5,M*2D
$HCHDM,133.5,M*2D
$GPRMC,221056.000,A,2754.4909,N,08227.0226,W,0.00,0.00,030518,,,A*78
$HCHDM,133.4,M*2C
$HCHDM,133.4,M*2C
$HCHDM,133.3,M*2B
$HCHDM,008.0,M*21
$HCHDM,133.3,M*2B
$HCHDM,133.2,M*2A
$HCHDM,133.2,M*2A
$HCHDM,133.2,M*2A
$HCHDM,133.2,M*2A
$HCHDM,133.1,M*29
$HCHDM,133.2,M*2A
$GPRMC,221057.000,A,2754.4909,N,08227.0226,W,0.00,0.00,030518,,,A*79
$HCHDM,133.1,M*29
$HCHDM,133.2,M*2A
$HCHDM,133.2,M*2A
$HCHDM,007.0,M*2E
$HCHDM,133.3,M*2B
$HCHDM,133.4,M*2C
$HCHDM,133.4,M*2C
$HCHDM,133.5,M*2D
$HCHDM,133.6,M*2E
$HCHDM,133.7,M*2F
$HCHDM,133.7,M*2F
$HCHDM,133.8,M*20
$HCHDM,133.9,M*21
$HCHDM,134.0,M*2F
$HCHDM,134.0,M*2F
$HCHDM,006.0,M*2F
$HCHDM,134.0,M*2F
$GPRMC,221058.000,A,2754.4909,N,08227.0226,W,0.00,0.00,030518,,,A*76
$HCHDM,134.1,M*2E
$HCHDM,134.1,M*2E
$HCHDM,134.1,M*2E
$HCHDM,134.1,M*2E
$HCHDM,134.1,M*2E
$GPRMC,221059.000,A,2754.4909,N,08227.0226,W,0.00,0.00,030518,,,A*77
$HCHDM,134.1,M*2E
$HCHDM,134.1,M*2E
$HCHDM,134.1,M*2E
$HCHDM,134.1,M*2E
$HCHDM,005.0,M*2C
$HCHDM,134.0,M*2F
$HCHDM,134.0,M*2F
$HCHDM,134.0,M*2F
$HCHDM,133.9,M*21
$HCHDM,133.9,M*21
$HCHDM,133.8,M*20
$GPRMC,221100.000,A,2754.4909,N,08227.0226,W,0.00,0.00,030518,,,A*7A
$HCHDM,133.8,M*20
$HCHDM,133.7,M*2F
$HCHDM,133.7,M*2F
$HCHDM,133.6,M*2E
$HCHDM,004.0,M*2D
$HCHDM,133.6,M*2E
$HCHDM,133.6,M*2E
$HCHDM,133.5,M*2D
$HCHDM,133.5,M*2D
$HCHDM,133.5,M*2D
$HCHDM,133.5,M*2D
$GPRMC,221101.000,A,2754.4911,N,08227.0223,W,0.08,0.00,030518,,,A*7F
$HCHDM,133.5,M*2D
$HCHDM,133.5,M*2D
$HCHDM,133.5,M*2D
$HCHDM,133.5,M*2D
$HCHDM,133.5,M*2D
$HCHDM,003.0,M*2A
$HCHDM,133.6,M*2E
$HCHDM,133.6,M*2E
$HCHDM,133.6,M*2E
$HCHDM,133.7,M*2F
$HCHDM,133.7,M*2F
$GPRMC,221102.000,A,2754.4911,N,08227.0223,W,0.01,0.00,030518,,,A*75
$HCHDM,133.7,M*2F
$HCHDM,133.8,M*20
$HCHDM,133.9,M*21
$HCHDM,133.9,M*21
$HCHDM,134.0,M*2F
$HCHDM,002.0,M*2B
$HCHDM,134.0,M*2F
$HCHDM,134.1,M*2E
$HCHDM,134.1,M*2E
$HCHDM,134.2,M*2D
$HCHDM,134.2,M*2D
$HCHDM,134.2,M*2D
$HCHDM,134.3,M*2C
$HCHDM,134.3,M*2C
$HCHDM,134.3,M*2C
$HCHDM,134.3,M*2C
$GPRMC,221103.000,A,2754.4911,N,08227.0223,W,0.00,0.00,030518,,,A*75
$HCHDM,134.3,M*2C
$HCHDM,001.0,M*28
$HCHDM,134.3,M*2C
$HCHDM,134.2,M*2D
$HCHDM,134.2,M*2D
$HCHDM,134.2,M*2D
$GPRMC,221104.000,A,2754.4911,N,08227.0222,W,0.00,0.00,030518,,,A*73
$HCHDM,134.1,M*2E
$HCHDM,134.1,M*2E
$HCHDM,134.0,M*2F
$HCHDM,134.0,M*2F
$HCHDM,134.0,M*2F
$HCHDM,133.9,M*21
$HCHDM,000.0,M*29
$HCHDM,133.9,M*21
$HCHDM,133.8,M*20
$HCHDM,133.8,M*20
$HCHDM,133.7,M*2F
$GPRMC,221105.000,A,2754.4911,N,08227.0222,W,0.00,0.00,030518,,,A*72
$HCHDM,133.7,M*2F
$HCHDM,133.6,M*2E
$HCHDM,133.6,M*2E
$HCHDM,133.5,M*2D
$HCHDM,133.5,M*2D
$HCHDM,133.4,M*2C
$HCHDM,133.4,M*2C
$HCHDM,010.0,M*28
$HCHDM,133.3,M*2B
$HCHDM,133.3,M*2B
$HCHDM,133.2,M*2A
$GPRMC,221106.000,A,2754.4911,N,08227.0222,W,0.00,0.00,030518,,,A*71
$HCHDM,133.2,M*2A
$HCHDM,133.1,M*29
$HCHDM,133.1,M*29
$HCHDM,133.0,M*28
$HCHDM,133.0,M*28
$HCHDM,132.8,M*21
$HCHDM,132.8,M*21
$HCHDM,132.7,M*2E
$HCHDM,009.0,M*20
$HCHDM,132.6,M*2F
$HCHDM,132.5,M*2C
$GPRMC,221107.000,A,2754.4911,N,08227.0222,W,0.00,0.00,030518,,,A*70
$HCHDM,132.4,M*2D
$HCHDM,132.2,M*2B
$HCHDM,132.1,M*28
$HCHDM,132.0,M*29
$HCHDM,131.9,M*23
$HCHDM,131.8,M*22
$HCHDM,131.6,M*2C
$HCHDM,131.5,M*2F
$HCHDM,008.0,M*21
$HCHDM,131.4,M*2E
$HCHDM,131.3,M*29
$HCHDM,131.2,M*28
$HCHDM,131.1,M*2B
$HCHDM,131.0,M*2A
$HCHDM,131.0,M*2A
$HCHDM,130.9,M*22
$GPRMC,221108.000,A,2754.4911,N,08227.0222,W,0.00,0.00,030518,,,A*7F
$HCHDM,130.8,M*23
$HCHDM,130.8,M*23
$HCHDM,130.8,M*23
$HCHDM,130.8,M*23
$HCHDM,007.0,M*2E
$HCHDM,130.8,M*23
$GPRMC,221109.000,A,2754.4911,N,08227.0222,W,0.00,0.00,030518,,,A*7E
$HCHDM,130.8,M*23
$HCHDM,130.8,M*23
$HCHDM,130.8,M*23
$HCHDM,130.9,M*22
$HCHDM,131.0,M*2A
$HCHDM,131.0,M*2A
$HCHDM,131.1,M*2B
$HCHDM,131.2,M*28
$HCHDM,131.2,M*28
$HCHDM,006.0,M*2F
$HCHDM,131.4,M*2E
$GPRMC,221110.000,A,2754.4911,N,08227.0222,W,0.00,0.00,030518,,,A*76
$HCHDM,131.4,M*2E
$HCHDM,131.5,M*2F
$HCHDM,131.6,M*2C
$HCHDM,131.7,M*2D
$HCHDM,131.7,M*2D
$HCHDM,131.8,M*22
$HCHDM,131.8,M*22
$HCHDM,131.8,M*22
$HCHDM,131.8,M*22
$HCHDM,005.0,M*2C
$HCHDM,131.8,M*22
$GPRMC,221111.000,A,2754.4911,N,08227.0222,W,0.00,0.00,030518,,,A*77
$HCHDM,131.8,M*22
$HCHDM,131.8,M*22
$HCHDM,131.7,M*2D
$HCHDM,131.6,M*2C
$HCHDM,131.5,M*2F
$HCHDM,131.4,M*2E
$HCHDM,131.3,M*29
$HCHDM,131.3,M*29
$HCHDM,131.2,M*28
$HCHDM,131.1,M*2B
$HCHDM,004.0,M*2D
$GPRMC,221112.000,A,2754.4911,N,08227.0222,W,0.00,0.00,030518,,,A*74
$HCHDM,130.9,M*22
$HCHDM,130.8,M*23
$HCHDM,130.7,M*2C
$HCHDM,130.6,M*2D
$HCHDM,130.5,M*2E
$HCHDM,130.4,M*2F
$HCHDM,130.3,M*28
$HCHDM,130.1,M*2A
$HCHDM,130.1,M*2A
$HCHDM,130.0,M*2B
$HCHDM,003.0,M*2A
$HCHDM,129.9,M*2A
$HCHDM,129.9,M*2A
$HCHDM,129.8,M*2B
$HCHDM,129.8,M*2B
$HCHDM,129.7,M*24
$GPRMC,221113.000,A,2754.4911,N,08227.0222,W,0.00,0.00,030518,,,A*75
$HCHDM,129.7,M*24
$HCHDM,129.6,M*25
$HCHDM,129.6,M*25
$HCHDM,129.6,M*25
$HCHDM,129.6,M*25
$GPRMC,221114.000,A,2754.4911,N,08227.0222,W,0.00,0.00,030518,,,A*72
$HCHDM,129.5,M*26
$HCHDM,002.0,M*2B
$HCHDM,129.5,M*26
$HCHDM,129.5,M*26
$HCHDM,129.4,M*27
$HCHDM,129.4,M*27
$HCHDM,129.4,M*27
$HCHDM,129.3,M*20
$HCHDM,129.3,M*20
$HCHDM,129.3,M*20
$HCHDM,129.2,M*21
$GPRMC,221115.000,A,2754.4911,N,08227.0222,W,0.00,0.00,030518,,,A*73
$HCHDM,129.2,M*21
$HCHDM,001.0,M*28
$HCHDM,129.2,M*21
$HCHDM,129.2,M*21
$HCHDM,129.2,M*21
$HCHDM,129.2,M*21
$HCHDM,129.2,M*21
$HCHDM,129.2,M*21
$HCHDM,129.1,M*22
$HCHDM,129.1,M*22
$HCHDM,129.1,M*22
$GPRMC,221116.000,A,2754.4911,N,08227.0222,W,0.00,0.00,030518,,,A*70
$HCHDM,129.1,M*22
$HCHDM,000.0,M*29
$HCHDM,129.1,M*22
$HCHDM,129.1,M*22
$HCHDM,129.1,M*22
$HCHDM,129.1,M*22
$HCHDM,129.1,M*22
$HCHDM,129.1,M*22
$HCHDM,129.1,M*22
$HCHDM,129.1,M*22
$HCHDM,129.0,M*23
$GPRMC,221117.000,A,2754.4912,N,08227.0222,W,0.00,0.00,030518,,,A*72
$HCHDM,129.0,M*23
$HCHDM,129.0,M*23
$HCHDM,128.9,M*2B
$HCHDM,128.9,M*2B
$HCHDM,128.9,M*2B
$HCHDM,128.9,M*2B
$HCHDM,128.9,M*2B
$HCHDM,128.9,M*2B
$HCHDM,128.9,M*2B
$HCHDM,128.9,M*2B
$HCHDM,128.8,M*2A
$HCHDM,128.9,M*2B
$HCHDM,128.9,M*2B
$HCHDM,128.8,M*2A
$HCHDM,128.8,M*2A
$GPRMC,221118.000,A,2754.4912,N,08227.0222,W,0.00,0.00,030518,,,A*7D
$HCHDM,128.8,M*2A
$HCHDM,128.8,M*2A
$HCHDM,128.8,M*2A
$HCHDM,128.7,M*25
$HCHDM,128.7,M*25
$GPRMC,221119.000,A,2754.4912,N,08227.0222,W,0.00,0.00,030518,,,A*7C
$HCHDM,128.7,M*25
$HCHDM,128.7,M*25
$HCHDM,128.6,M*24
$HCHDM,128.6,M*24
$HCHDM,128.6,M*24
$HCHDM,128.5,M*27
$HCHDM,128.4,M*26
$HCHDM,128.4,M*26
$HCHDM,128.3,M*21
$HCHDM,128.3,M*21
$GPRMC,221120.000,A,2754.4912,N,08227.0222,W,0.00,0.00,030518,,,A*76
$HCHDM,128.2,M*20
$HCHDM,128.1,M*23
$HCHDM,128.0,M*22
$HCHDM,127.9,M*24
$HCHDM,127.8,M*25
$HCHDM,127.7,M*2A
$HCHDM,127.6,M*2B
$HCHDM,127.5,M*28
$HCHDM,127.4,M*29
$HCHDM,127.4,M*29
$GPRMC,221121.000,A,2754.4912,N,08227.0222,W,0.00,0.00,030518,,,A*77
$HCHDM,127.3,M*2E
$HCHDM,127.2,M*2F
$HCHDM,127.2,M*2F
$HCHDM,127.2,M*2F
$HCHDM,127.2,M*2F
$HCHDM,127.2,M*2F
$HCHDM,127.2,M*2F
$HCHDM,127.2,M*2F
$HCHDM,127.2,M*2F
$HCHDM,127.2,M*2F
$GPRMC,221122.000,A,2754.4912,N,08227.0222,W,0.00,0.00,030518,,,A*74
$HCHDM,127.3,M*2E
$HCHDM,127.3,M*2E
$HCHDM,127.4,M*29
$HCHDM,127.4,M*29
$HCHDM,127.5,M*28
$HCHDM,127.6,M*2B
$HCHDM,127.6,M*2B
$HCHDM,127.6,M*2B
$HCHDM,127.6,M*2B
$HCHDM,127.6,M*2B
$HCHDM,127.6,M*2B
$HCHDM,127.6,M*2B
$HCHDM,127.6,M*2B
$HCHDM,127.5,M*28
$HCHDM,127.5,M*28
$GPRMC,221123.000,A,2754.4912,N,08227.0222,W,0.00,0.00,030518,,,A*75
$HCHDM,127.4,M*29
$HCHDM,127.3,M*2E
$HCHDM,127.2,M*2F
$HCHDM,127.1,M*2C
$HCHDM,126.9,M*25
$GPRMC,221124.000,A,2754.4912,N,08227.0222,W,0.00,0.00,030518,,,A*72
$HCHDM,126.8,M*24
$HCHDM,126.6,M*2A
$HCHDM,126.5,M*29
$HCHDM,126.4,M*28
$HCHDM,126.3,M*2F
$HCHDM,126.1,M*2D
$HCHDM,126.0,M*2C
$HCHDM,125.9,M*26
$HCHDM,125.8,M*27
$HCHDM,125.7,M*28
$GPRMC,221125.000,A,2754.4912,N,08227.0222,W,0.00,0.00,030518,,,A*73
$HCHDM,125.6,M*29
$HCHDM,125.5,M*2A
$HCHDM,125.4,M*2B
$HCHDM,125.3,M*2C
$HCHDM,125.3,M*2C
$HCHDM,125.2,M*2D
$HCHDM,125.2,M*2D
$HCHDM,125.2,M*2D
$HCHDM,125.2,M*2D
$HCHDM,125.2,M*2D
$GPRMC,221126.000,A,2754.4912,N,08227.0222,W,0.00,0.00,030518,,,A*70
$HCHDM,125.3,M*2C
$HCHDM,125.3,M*2C
$HCHDM,125.4,M*2B
$HCHDM,125.4,M*2B
$HCHDM,125.5,M*2A
$HCHDM,125.6,M*29
$HCHDM,125.7,M*28
$HCHDM,125.8,M*27
$HCHDM,125.9,M*26
$HCHDM,126.0,M*2C
$GPRMC,221127.000,A,2754.4912,N,08227.0222,W,0.00,0.00,030518,,,A*71
$HCHDM,126.1,M*2D
$HCHDM,126.2,M*2E
$HCHDM,126.3,M*2F
$HCHDM,126.4,M*28
$HCHDM,126.5,M*29
$HCHDM,126.6,M*2A
$HCHDM,126.8,M*24
$HCHDM,126.8,M*24
$HCHDM,126.9,M*25
$HCHDM,127.0,M*2D
$HCHDM,127.0,M*2D
$HCHDM,127.1,M*2C
$HCHDM,127.2,M*2F
$HCHDM,127.2,M*2F
$HCHDM,127.2,M*2F
$GPRMC,221128.000,A,2754.4912,N,08227.0222,W,0.00,0.00,030518,,,A*7E
$HCHDM,127.2,M*2F
$HCHDM,127.3,M*2E
$HCHDM,127.3,M*2E
$HCHDM,127.3,M*2E
$HCHDM,127.3,M*2E
$HCHDM,127.3,M*2E
$GPRMC,221129.000,A,2754.4912,N,08227.0222,W,0.00,0.00,030518,,,A*7F
$HCHDM,127.4,M*29
$HCHDM,127.4,M*29
$HCHDM,127.4,M*29
$HCHDM,127.5,M*28
$HCHDM,127.5,M*28
$HCHDM,127.5,M*28
$HCHDM,127.6,M*2B
$HCHDM,127.6,M*2B
$HCHDM,127.7,M*2A
$GPRMC,221130.000,A,2754.4912,N,08227.0222,W,0.00,0.00,030518,,,A*77
$HCHDM,127.7,M*2A
$HCHDM,127.8,M*25
$HCHDM,127.8,M*25
$HCHDM,127.9,M*24
$HCHDM,127.9,M*24
$HCHDM,127.9,M*24
$HCHDM,128.0,M*22
$HCHDM,128.1,M*23
$HCHDM,128.2,M*20
$HCHDM,128.2,M*20
$HCHDM,128.3,M*21
$GPRMC,221131.000,A,2754.4912,N,08227.0222,W,0.00,0.00,030518,,,A*76
$HCHDM,128.3,M*21
$HCHDM,128.4,M*26
$HCHDM,128.4,M*26
$HCHDM,128.5,M*27
$HCHDM,128.6,M*24
$HCHDM,128.6,M*24
$HCHDM,128.7,M*25
$HCHDM,128.8,M*2A
$HCHDM,128.8,M*2A
$HCHDM,128.9,M*2B
$GPRMC,221132.000,A,2754.4912,N,08227.0222,W,0.00,0.00,030518,,,A*75
$HCHDM,129.0,M*23
$HCHDM,129.0,M*23
$HCHDM,129.0,M*23
$HCHDM,129.1,M*22
$HCHDM,129.2,M*21
$HCHDM,129.2,M*21
$HCHDM,129.2,M*21
$HCHDM,129.2,M*21
$HCHDM,129.2,M*21
$HCHDM,129.2,M*21
$HCHDM,129.2,M*21
$HCHDM,129.2,M*21
$HCHDM,129.2,M*21
$HCHDM,129.2,M*21
$GPRMC,221133.000,A,2754.4912,N,08227.0222,W,0.00,0.00,030518,,,A*74
$HCHDM,129.3,M*20
$HCHDM,129.3,M*20
$HCHDM,129.3,M*20
$HCHDM,129.3,M*20
$HCHDM,129.2,M*21
$HCHDM,129.2,M*21
$GPRMC,221134.000,A,2754.4912,N,08227.0222,W,0.00,0.00,030518,,,A*73
$HCHDM,129.3,M*20
$HCHDM,129.3,M*20
$HCHDM,129.3,M*20
$HCHDM,129.2,M*21
$HCHDM,129.2,M*21
$HCHDM,129.2,M*21
$HCHDM,129.2,M*21
$HCHDM,129.1,M*22
$HCHDM,129.0,M*23
$GPRMC,221135.000,A,2754.4912,N,08227.0222,W,0.00,0.00,030518,,,A*72
$HCHDM,129.0,M*23
$HCHDM,129.0,M*23
$HCHDM,128.9,M*2B
$HCHDM,128.9,M*2B
$HCHDM,128.8,M*2A
$HCHDM,128.8,M*2A
$HCHDM,128.8,M*2A
$HCHDM,128.7,M*25
$HCHDM,128.7,M*25
$HCHDM,128.6,M*24
$HCHDM,128.6,M*24
$GPRMC,221136.000,A,2754.4912,N,08227.0222,W,0.00,0.00,030518,,,A*71
$HCHDM,128.7,M*25
$HCHDM,128.7,M*25
$HCHDM,128.7,M*25
$HCHDM,128.7,M*25
$HCHDM,128.7,M*25
$HCHDM,128.8,M*2A
$HCHDM,128.8,M*2A
$HCHDM,128.8,M*2A
$HCHDM,128.7,M*25
$HCHDM,128.7,M*25
$GPRMC,221137.000,A,2754.4912,N,08227.0222,W,0.00,0.00,030518,,,A*70
$HCHDM,128.7,M*25
$HCHDM,128.7,M*25
$HCHDM,128.7,M*25
$HCHDM,128.7,M*25
$HCHDM,128.7,M*25
$HCHDM,128.7,M*25
$HCHDM,128.6,M*24
$HCHDM,128.6,M*24
$HCHDM,128.5,M*27
$HCHDM,128.5,M*27
$HCHDM,128.4,M*26
$HCHDM,128.3,M*21
$HCHDM,128.2,M*20
$HCHDM,128.0,M*22
$GPRMC,221138.000,A,2754.4912,N,08227.0221,W,0.00,0.00,030518,,,A*7C
$HCHDM,127.9,M*24
$HCHDM,127.7,M*2A
$HCHDM,127.6,M*2B
$HCHDM,127.4,M*29
$HCHDM,127.3,M*2E
$HCHDM,127.1,M*2C
$GPRMC,221139.000,A,2754.4912,N,08227.0221,W,0.00,0.00,030518,,,A*7D
$HCHDM,126.9,M*25
$HCHDM,126.7,M*2B
$HCHDM,126.5,M*29
$HCHDM,126.3,M*2F
$HCHDM,126.2,M*2E
$HCHDM,126.0,M*2C
$HCHDM,125.8,M*27
$HCHDM,125.7,M*28
$HCHDM,125.6,M*29
$HCHDM,125.5,M*2A
$GPRMC,221140.000,A,2754.4912,N,08227.0221,W,0.00,0.00,030518,,,A*73
$HCHDM,125.4,M*2B
$HCHDM,125.3,M*2C
$HCHDM,125.3,M*2C
$HCHDM,125.3,M*2C
$HCHDM,125.3,M*2C
$HCHDM,125.3,M*2C
$HCHDM,125.4,M*2B
$HCHDM,125.4,M*2B
$HCHDM,125.5,M*2A
$HCHDM,125.6,M*29
$GPRMC,221141.000,A,2754.4912,N,08227.0221,W,0.00,0.00,030518,,,A*72
$HCHDM,125.6,M*29
$HCHDM,125.8,M*27
$HCHDM,125.8,M*27
$HCHDM,126.0,M*2C
$HCHDM,126.1,M*2D
$HCHDM,126.2,M*2E
$HCHDM,126.3,M*2F
$HCHDM,126.4,M*28
$HCHDM,126.5,M*29
$HCHDM,126.5,M*29
$GPRMC,221142.000,A,2754.4912,N,08227.0221,W,0.00,0.00,030518,,,A*71
$HCHDM,126.5,M*29
$HCHDM,126.6,M*2A
$HCHDM,126.6,M*2A
$HCHDM,126.7,M*2B
$HCHDM,126.6,M*2A
$HCHDM,126.7,M*2B
$HCHDM,126.6,M*2A
$HCHDM,126.6,M*2A
$HCHDM,126.6,M*2A
$HCHDM,126.6,M*2A
$HCHDM,126.5,M*29
$HCHDM,126.4,M*28
$HCHDM,126.4,M*28
$HCHDM,126.4,M*28
$GPRMC,221143.000,A,2754.4912,N,08227.0221,W,0.00,0.00,030518,,,A*70
$HCHDM,126.4,M*28
$HCHDM,126.4,M*28
$HCHDM,126.4,M*28
$HCHDM,126.4,M*28
$HCHDM,126.4,M*28
$GPRMC,221144.000,A,2754.4912,N,08227.0221,W,0.00,0.00,030518,,,A*77
$HCHDM,126.5,M*29
$HCHDM,126.6,M*2A
$HCHDM,126.6,M*2A
$HCHDM,126.7,M*2B
$HCHDM,126.8,M*24
$HCHDM,127.0,M*2D
$HCHDM,127.1,M*2C
$HCHDM,127.3,M*2E
$HCHDM,127.4,M*29
$HCHDM,127.5,M*28
$HCHDM,127.7,M*2A
$GPRMC,221145.000,A,2754.4914,N,08227.0219,W,0.16,0.00,030518,,,A*7C
$HCHDM,127.8,M*25
$HCHDM,127.9,M*24
$HCHDM,128.1,M*23
$HCHDM,128.2,M*20
$HCHDM,128.3,M*21
$HCHDM,128.3,M*21
$HCHDM,128.4,M*26
$HCHDM,128.5,M*27
$HCHDM,128.5,M*27
$HCHDM,128.5,M*27
$GPRMC,221146.000,A,2754.4914,N,08227.0219,W,0.06,0.00,030518,,,A*7E
$HCHDM,128.5,M*27
$HCHDM,128.6,M*24
$HCHDM,128.6,M*24
$HCHDM,128.6,M*24
$HCHDM,128.6,M*24
$HCHDM,128.6,M*24
$HCHDM,128.6,M*24
$HCHDM,128.6,M*24
$HCHDM,128.6,M*24
$HCHDM,128.7,M*25
$GPRMC,221147.000,A,2754.4914,N,08227.0219,W,0.02,0.00,030518,,,A*7B
$HCHDM,128.7,M*25
$HCHDM,128.7,M*25
$HCHDM,128.8,M*2A
$HCHDM,128.8,M*2A
$HCHDM,128.9,M*2B
$HCHDM,129.0,M*23
$HCHDM,129.1,M*22
$HCHDM,129.2,M*21
$HCHDM,129.2,M*21
$HCHDM,129.3,M*20
$HCHDM,129.4,M*27
$HCHDM,129.4,M*27
$HCHDM,129.5,M*26
$HCHDM,129.6,M*25
$GPRMC,221148.000,A,2754.4914,N,08227.0219,W,0.01,0.00,030518,,,A*77
$HCHDM,129.6,M*25
$HCHDM,129.7,M*24
$HCHDM,129.7,M*24
$HCHDM,129.7,M*24
$HCHDM,129.7,M*24
$GPRMC,221149.000,A,2754.4914,N,08227.0219,W,0.00,0.00,030518,,,A*77
$HCHDM,129.8,M*2B
$HCHDM,129.8,M*2B
$HCHDM,129.8,M*2B
$HCHDM,129.7,M*24
$HCHDM,129.7,M*24
$HCHDM,129.7,M*24
$HCHDM,129.7,M*24
$HCHDM,129.7,M*24
$HCHDM,129.7,M*24
$HCHDM,129.7,M*24
$GPRMC,221150.000,A,2754.4914,N,08227.0219,W,0.00,0.00,030518,,,A*7F
$HCHDM,129.7,M*24
$HCHDM,129.7,M*24
$HCHDM,129.7,M*24
$HCHDM,129.7,M*24
$HCHDM,129.6,M*25
$HCHDM,129.6,M*25
$HCHDM,129.6,M*25
$HCHDM,129.6,M*25
$HCHDM,129.6,M*25
$HCHDM,129.5,M*26
$GPRMC,221151.000,A,2754.4914,N,08227.0219,W,0.00,0.00,030518,,,A*7E
$HCHDM,129.5,M*26
$HCHDM,129.5,M*26
$HCHDM,129.4,M*27
$HCHDM,129.4,M*27
$HCHDM,129.3,M*20
$HCHDM,129.3,M*20
$HCHDM,129.2,M*21
$HCHDM,129.2,M*21
$HCHDM,129.1,M*22
$HCHDM,129.1,M*22
$GPRMC,221152.000,A,2754.4914,N,08227.0219,W,0.00,0.00,030518,,,A*7D
$HCHDM,129.0,M*23
$HCHDM,128.9,M*2B
$HCHDM,128.8,M*2A
$HCHDM,128.8,M*2A
$HCHDM,128.7,M*25
$HCHDM,128.6,M*24
$HCHDM,128.5,M*27
$HCHDM,128.5,M*27
$HCHDM,128.4,M*26
$HCHDM,128.3,M*21
$HCHDM,128.2,M*20
$HCHDM,128.2,M*20
$HCHDM,128.1,M*23
$HCHDM,128.0,M*22
$HCHDM,127.9,M*24
$GPRMC,221153.000,A,2754.4914,N,08227.0219,W,0.00,0.00,030518,,,A*7C
$HCHDM,127.9,M*24
$HCHDM,127.8,M*25
$HCHDM,127.7,M*2A
$HCHDM,127.7,M*2A
$HCHDM,127.6,M*2B
$GPRMC,221154.000,A,2754.4914,N,08227.0219,W,0.00,0.00,030518,,,A*7B
$HCHDM,127.6,M*2B
$HCHDM,127.5,M*28
$HCHDM,127.4,M*29
$HCHDM,127.4,M*29
$HCHDM,127.3,M*2E
$HCHDM,127.3,M*2E
$HCHDM,127.2,M*2F
$HCHDM,127.2,M*2F
$HCHDM,127.1,M*2C
$HCHDM,127.1,M*2C
$HCHDM,127.1,M*2C
$GPRMC,221155.000,A,2754.4914,N,08227.0219,W,0.00,0.00,030518,,,A*7A
$HCHDM,127.1,M*2C
$HCHDM,127.0,M*2D
$HCHDM,127.0,M*2D
$HCHDM,127.0,M*2D
$HCHDM,126.9,M*25
$HCHDM,126.9,M*25
$HCHDM,126.9,M*25
$HCHDM,126.9,M*25
$HCHDM,126.9,M*25
$GPRMC,221156.000,A,2754.4914,N,08227.0219,W,0.00,0.00,030518,,,A*79
$HCHDM,127.0,M*2D
$HCHDM,127.0,M*2D
$HCHDM,127.0,M*2D
$HCHDM,127.0,M*2D
$HCHDM,127.1,M*2C
$HCHDM,127.1,M*2C
$HCHDM,127.1,M*2C
$HCHDM,127.2,M*2F
$HCHDM,127.3,M*2E
$HCHDM,127.3,M*2E
$GPRMC,221157.000,A,2754.4914,N,08227.0219,W,0.00,0.00,030518,,,A*78
$HCHDM,127.3,M*2E
$HCHDM,127.4,M*29
$HCHDM,127.4,M*29
$HCHDM,127.5,M*28
$HCHDM,127.5,M*28
$HCHDM,127.6,M*2B
$HCHDM,127.6,M*2B
$HCHDM,127.6,M*2B
$HCHDM,127.6,M*2B
$HCHDM,127.7,M*2A
$HCHDM,127.7,M*2A
$HCHDM,127.8,M*25
$HCHDM,127.8,M*25
$HCHDM,127.9,M*24
$HCHDM,127.9,M*24
$GPRMC,221158.000,A,2754.4914,N,08227.0219,W,0.00,0.00,030518,,,A*77
$HCHDM,127.9,M*24
$HCHDM,127.9,M*24
$HCHDM,128.0,M*22
$HCHDM,128.0,M*22
$HCHDM,128.1,M*23
$GPRMC,221159.000,A,2754.4914,N,08227.0219,W,0.00,0.00,030518,,,A*76
$HCHDM,128.1,M*23
$HCHDM,128.2,M*20
$HCHDM,128.2,M*20
$HCHDM,128.2,M*20
$HCHDM,128.3,M*21
$HCHDM,128.4,M*26
$HCHDM,128.4,M*26
$HCHDM,128.4,M*26
